,city_id,City,Country,Lon,Lat,Cloudiness (%),Humidity,Temp,Wind Speed,Time
0,3389822,Salinopolis,BR,-47.36,-0.61,78,80,27.78,8.38,2019-08-14 00:05:16
1,3437029,San Patricio,PY,-56.83,-26.98,0,76,7.38,2.83,2019-08-14 00:05:17
2,3833367,Ushuaia,AR,-68.31,-54.81,75,55,3.0,2.1,2019-08-14 00:03:15
3,3026644,Souillac,FR,-0.6,45.6,0,82,14.44,0.89,2019-08-14 00:05:20
4,1651810,Airai,TL,125.41,-8.93,2,40,25.38,0.36,2019-08-14 00:05:21
5,1006984,East London,ZA,27.91,-33.02,0,81,10.28,2.24,2019-08-14 00:05:23
6,1798537,Hanyang,CN,105.51,32.14,29,70,23.28,2.82,2019-08-14 00:05:24
7,3831208,Qaanaaq,GL,-69.36,77.48,41,51,6.28,0.41,2019-08-14 00:01:04
8,5106834,Albany,US,-73.75,42.65,75,83,21.62,1.5,2019-08-14 00:05:27
9,3514593,Tecolutla,MX,-98.74,17.31,72,92,19.58,1.91,2019-08-14 00:05:28
10,4030556,Rikitea,PF,-134.97,-23.12,0,79,22.98,6.01,2019-08-14 00:05:30
11,6201424,Mataura,NZ,168.86,-46.19,76,63,7.68,4.98,2019-08-14 00:05:31
12,1637001,Biak,ID,122.88,-0.91,94,93,17.58,2.59,2019-08-14 00:05:32
13,2146219,Hervey Bay,AU,152.85,-25.3,90,63,19.0,3.6,2019-08-14 00:05:34
14,3685871,Corinto,CO,-76.26,3.17,40,58,28.0,6.2,2019-08-14 00:05:35
15,105299,Jizan,SA,42.56,16.89,40,62,30.0,2.1,2019-08-14 00:05:36
16,1852357,Shimoda,JP,138.93,34.7,75,88,27.29,4.6,2019-08-14 00:05:38
17,2508813,Adrar,DZ,-0.29,27.87,0,13,36.0,6.2,2019-08-14 00:05:41
18,3433715,Goya,AR,-59.27,-29.14,0,65,7.18,3.69,2019-08-14 00:05:42
19,1255860,Basna,IN,73.75,25.97,91,74,27.88,4.03,2019-08-14 00:05:43
20,4031637,Lavrentiya,RU,-170.99,65.58,84,65,12.18,8.72,2019-08-14 00:05:46
21,1326105,Falam,MM,93.68,22.91,100,98,18.48,0.47,2019-08-14 00:05:47
22,2090021,Namatanai,PG,152.44,-3.66,62,83,26.88,6.51,2019-08-14 00:03:41
23,4035715,Avarua,CK,-159.78,-21.21,35,69,26.0,4.1,2019-08-14 00:05:50
24,2163355,Hobart,AU,147.33,-42.88,20,75,8.0,5.1,2019-08-14 00:05:51
25,3443061,Chuy,UY,-53.46,-33.69,52,72,6.58,7.14,2019-08-14 00:05:53
26,1263751,Mangrol,IN,76.51,25.33,100,86,26.68,2.09,2019-08-14 00:05:54
27,2208248,Kaitangata,NZ,169.85,-46.28,90,71,5.48,5.6,2019-08-14 00:05:56
28,3832899,Viedma,AR,-62.99,-40.81,21,51,4.38,4.02,2019-08-14 00:05:57
29,1273574,Vaini,IN,74.49,15.34,100,91,24.38,0.59,2019-08-14 00:05:58
30,1106677,Bambous Virieux,MU,57.76,-20.34,75,94,21.0,5.7,2019-08-14 00:06:00
31,5855927,Hilo,US,-155.08,19.71,75,58,28.0,3.1,2019-08-14 00:06:01
32,612592,Oni,GE,43.44,42.59,0,68,15.18,3.3,2019-08-14 00:06:03
33,488946,Staritsa,RU,34.93,56.51,95,96,14.68,3.77,2019-08-14 00:06:04
34,6185377,Yellowknife,CA,-114.38,62.45,90,66,11.0,4.1,2019-08-14 00:03:47
35,6355222,Yulara,AU,130.99,-25.24,0,46,10.0,1.5,2019-08-14 00:06:08
36,3372760,Praia da Vitoria,PT,-27.07,38.73,40,88,22.0,3.46,2019-08-14 00:06:09
37,2026861,Berdigestyakh,RU,126.7,62.1,87,59,18.58,1.86,2019-08-14 00:05:44
38,4011743,Constitucion,MX,-104.67,23.99,75,13,30.0,3.1,2019-08-14 00:06:12
39,2077895,Alice Springs,AU,133.88,-23.7,0,43,11.0,0.5,2019-08-14 00:05:54
40,3896218,Castro,CL,-73.76,-42.48,0,86,4.0,2.6,2019-08-14 00:06:15
41,1733782,Victoria,BN,115.24,5.28,75,88,27.5,1.93,2019-08-14 00:06:18
42,2175403,Bluff,AU,149.07,-23.58,0,52,18.58,4.11,2019-08-14 00:06:19
43,2020838,Lensk,RU,114.91,60.71,96,82,15.48,0.13,2019-08-14 00:06:20
44,2514651,Los Llanos de Aridane,ES,-17.92,28.66,40,68,22.0,6.2,2019-08-14 00:06:22
45,2069194,Jamestown,AU,138.6,-33.21,0,51,11.18,6.1,2019-08-14 00:06:23
46,4031574,Provideniya,RU,-173.23,64.42,90,87,11.0,7.0,2019-08-14 00:06:24
47,3418910,Upernavik,GL,-56.15,72.79,47,66,6.68,4.59,2019-08-14 00:06:26
48,5975004,High Level,CA,-117.13,58.52,75,33,24.0,3.6,2019-08-14 00:06:27
49,1015776,Bredasdorp,ZA,20.04,-34.53,23,71,14.0,5.1,2019-08-14 00:06:29
50,2656067,Broome,GB,1.45,52.47,33,87,11.38,2.1,2019-08-14 00:06:30
51,2219235,Awbari,LY,12.77,26.59,31,21,27.68,3.58,2019-08-14 00:06:31
52,3546791,Moa,CU,-74.95,20.66,90,93,23.58,0.76,2019-08-14 00:06:33
53,3874787,Punta Arenas,CL,-70.91,-53.16,75,74,2.0,3.6,2019-08-14 00:06:34
54,2991771,Groa,FR,-4.14,48.67,0,93,15.0,5.1,2019-08-14 00:06:36
55,5983720,Iqaluit,CA,-68.52,63.75,90,70,9.0,2.1,2019-08-14 00:06:38
56,6167817,Torbay,CA,-52.73,47.66,90,88,18.0,8.2,2019-08-14 00:06:41
57,2155415,New Norfolk,AU,147.06,-42.78,20,75,8.0,5.1,2019-08-14 00:06:42
58,2729907,Longyearbyen,NO,15.63,78.22,50,75,2.88,4.65,2019-08-14 00:06:44
59,4407665,Kodiak,US,-94.76,39.95,1,58,29.69,2.6,2019-08-14 00:06:45
60,2126123,Chokurdakh,RU,147.9,70.62,99,70,7.78,6.29,2019-08-14 00:06:48
61,2075265,Busselton,AU,115.35,-33.64,100,82,13.28,6.06,2019-08-14 00:06:49
62,4267710,Sitka,US,-99.65,37.17,2,32,32.88,6.22,2019-08-14 00:06:51
63,1282256,Hithadhoo,MV,73.08,-0.6,74,74,28.48,3.85,2019-08-14 00:06:52
64,1493423,Russkaya Polyana,RU,73.88,53.78,62,78,14.78,3.58,2019-08-14 00:06:53
65,161616,Balkanabat,TM,54.36,39.51,0,39,22.68,6.24,2019-08-14 00:06:55
66,5540831,Hurricane,US,-113.29,37.18,1,10,35.06,3.6,2019-08-14 00:06:56
67,1507390,Dikson,RU,80.55,73.51,100,83,4.38,10.47,2019-08-14 00:06:58
68,3652764,Puerto Ayora,EC,-90.35,-0.74,0,77,21.0,7.2,2019-08-14 00:06:59
69,1489822,Teguldet,RU,88.17,57.31,59,82,10.48,1.9,2019-08-14 00:07:01
70,2127202,Anadyr,RU,177.51,64.73,40,82,14.0,4.0,2019-08-14 00:07:02
71,2020584,Magistralnyy,RU,107.45,56.17,78,88,9.98,0.99,2019-08-14 00:07:04
72,1490085,Tarko-Sale,RU,77.78,64.92,80,84,10.28,4.84,2019-08-14 00:07:05
73,535839,Leshukonskoye,RU,45.76,64.9,87,66,6.48,2.01,2019-08-14 00:07:06
74,7671223,Kloulklubed,PW,134.26,7.04,75,74,29.0,2.6,2019-08-14 00:07:09
75,6170031,Tuktoyaktuk,CA,-133.03,69.44,40,76,13.0,1.5,2019-08-14 00:07:10
76,3366880,Hermanus,ZA,19.24,-34.42,97,83,15.28,9.06,2019-08-14 00:07:12
77,1651591,Amahai,ID,129.0,-3.31,89,87,24.28,5.16,2019-08-14 00:07:13
78,3424607,Tasiilaq,GL,-37.64,65.61,100,86,4.0,2.6,2019-08-14 00:07:15
79,3863379,Mar del Plata,AR,-67.52,-46.43,98,65,1.98,3.92,2019-08-14 00:07:16
80,2191562,Dunedin,NZ,170.5,-45.87,99,67,7.28,11.26,2019-08-14 00:07:17
81,2110227,Butaritari,KI,172.79,3.07,100,73,28.68,5.82,2019-08-14 00:07:19
82,6050066,La Ronge,CA,-105.3,55.1,75,93,15.0,1.5,2019-08-14 00:07:20
83,5586093,Blackfoot,US,-112.35,43.19,1,16,30.26,3.6,2019-08-14 00:07:22
84,2618795,Klaksvik,FO,-6.59,62.23,0,93,9.0,4.1,2019-08-14 00:07:23
85,5848280,Kapaa,US,-159.32,22.08,1,62,30.53,4.6,2019-08-14 00:07:26
86,1490256,Talnakh,RU,88.39,69.49,40,93,9.0,5.0,2019-08-14 00:07:27
87,3576994,Cockburn Town,TC,-71.14,21.46,100,80,28.78,8.55,2019-08-14 00:07:29
88,1262484,Mungeli,IN,81.69,22.07,100,86,25.58,3.94,2019-08-14 00:07:30
89,2036069,Linjiang,CN,126.91,41.81,67,91,22.68,1.63,2019-08-14 00:07:31
90,4034551,Faanui,PF,-151.75,-16.48,99,73,25.78,3.9,2019-08-14 00:07:33
91,3833859,Barrow,AR,-60.23,-38.31,38,90,1.48,1.78,2019-08-14 00:07:34
92,2092164,Lorengau,PG,147.27,-2.02,73,74,28.38,3.36,2019-08-14 00:07:35
93,6049403,Langham,CA,-106.96,52.36,75,43,21.0,4.1,2019-08-14 00:07:37
94,5367788,Lompoc,US,-120.46,34.64,1,72,22.44,5.7,2019-08-14 00:07:38
95,5859699,College,US,-147.8,64.86,90,88,17.26,3.6,2019-08-14 00:07:40
96,3129839,Aras,ES,-2.36,42.56,40,76,12.63,1.51,2019-08-14 00:07:41
97,5742974,North Bend,US,-124.22,43.41,1,77,20.5,4.6,2019-08-14 00:07:42
98,1495626,Pangody,RU,74.49,65.85,46,84,9.28,5.69,2019-08-14 00:07:44
99,359792,Aswan,EG,32.9,24.09,21,14,29.18,3.64,2019-08-14 00:07:45
100,1168700,Ormara,PK,64.64,25.21,24,83,27.88,1.2,2019-08-14 00:07:47
101,3466165,Cidreira,BR,-50.22,-30.17,26,69,8.08,4.54,2019-08-14 00:07:48
102,3378644,Georgetown,GY,-58.16,6.8,75,88,25.37,2.1,2019-08-14 00:07:49
103,1500607,Lesosibirsk,RU,92.49,58.22,98,86,10.78,1.5,2019-08-14 00:07:51
104,344979,Lebu,ET,38.73,8.96,75,93,13.0,2.1,2019-08-14 00:07:52
105,3372472,Vila Franca do Campo,PT,-25.43,37.72,20,88,20.0,1.0,2019-08-14 00:07:53
106,2017155,Saskylakh,RU,114.09,71.97,97,73,11.78,8.05,2019-08-14 00:07:55
107,1510960,Balgazyn,RU,95.2,51.0,0,74,11.58,0.72,2019-08-14 00:07:56
108,4278471,Russell,US,-98.86,38.9,1,43,32.03,5.7,2019-08-14 00:07:14
109,1014034,Carnarvon,ZA,22.13,-30.97,0,42,6.88,3.04,2019-08-14 00:07:59
110,6165406,Thompson,CA,-97.86,55.74,75,40,23.0,4.1,2019-08-14 00:08:00
111,4501427,Port Elizabeth,US,-74.98,39.31,90,88,25.42,2.04,2019-08-14 00:08:02
112,2022572,Khatanga,RU,102.47,71.98,79,66,10.38,2.87,2019-08-14 00:08:03
113,5924351,Clyde River,CA,-68.59,70.47,5,93,8.0,6.2,2019-08-14 00:08:04
114,2136150,Luganville,VU,167.18,-15.51,75,74,28.0,4.1,2019-08-14 00:08:07
115,5853992,Wahiawa,US,-158.02,21.5,40,66,30.77,4.6,2019-08-14 00:08:09
116,4020109,Atuona,PF,-139.03,-9.8,65,73,26.18,7.34,2019-08-14 00:08:10
117,3369157,Cape Town,ZA,18.42,-33.93,75,93,14.0,4.6,2019-08-14 00:05:07
118,5880568,Bethel,US,-161.76,60.79,90,77,16.0,4.1,2019-08-14 00:08:14
119,3697838,Contamana,PE,-75.01,-7.35,92,55,27.38,1.13,2019-08-14 00:08:15
120,1259047,Jian,IN,87.89,25.65,96,86,27.08,6.39,2019-08-14 00:08:17
121,2644210,Liverpool,GB,-2.98,53.41,0,82,12.36,3.1,2019-08-14 00:04:15
122,3456863,Monte Azul Paulista,BR,-48.64,-20.91,26,66,22.48,5.34,2019-08-14 00:04:00
123,2121385,Severo-Kurilsk,RU,156.12,50.68,100,94,10.08,4.02,2019-08-14 00:08:23
124,4931273,Brewster,US,-70.08,41.76,90,94,21.29,6.96,2019-08-14 00:08:25
125,5905393,Bonavista,CA,-53.11,48.65,8,83,17.38,9.47,2019-08-14 00:03:58
126,60019,Eyl,SO,49.82,7.98,44,68,24.28,14.95,2019-08-14 00:08:27
127,2033196,Zhangjiakou,CN,114.88,40.77,98,60,18.28,3.12,2019-08-14 00:08:29
128,3655185,Samana,EC,-76.97,0.12,90,78,24.62,4.1,2019-08-14 00:08:30
129,3421719,Narsaq,GL,-46.05,60.91,20,30,14.0,9.3,2019-08-14 00:08:32
130,5882953,Aklavik,CA,-135.01,68.22,75,72,14.78,5.1,2019-08-14 00:08:33
131,2033225,Zalantun,CN,122.72,48.0,98,72,18.48,2.52,2019-08-14 00:08:34
132,1498161,Muzhi,RU,64.7,65.4,98,94,5.88,2.28,2019-08-14 00:08:36
133,1621655,Kendal,ID,110.2,-6.92,20,65,26.0,3.1,2019-08-14 00:08:37
134,3471451,Arraial do Cabo,BR,-42.02,-22.97,70,88,21.58,10.36,2019-08-14 00:08:38
135,1714733,Dingle,PH,122.67,11.0,60,78,27.58,4.33,2019-08-14 00:08:40
136,7304020,Muli,CN,109.56,28.08,0,74,25.78,0.73,2019-08-14 00:08:42
137,6355960,Olivenza,ES,-7.1,38.68,12,48,16.38,3.06,2019-08-14 00:08:44
138,1528796,At-Bashi,KG,75.81,41.17,95,85,11.98,1.59,2019-08-14 00:06:11
139,2281120,Tabou,CI,-7.36,4.42,98,92,23.18,2.06,2019-08-14 00:08:46
140,3453439,Ponta do Sol,BR,-46.0,-20.63,28,47,21.68,1.74,2019-08-14 00:08:49
141,4031742,Egvekinot,RU,-179.17,66.32,100,95,7.18,0.68,2019-08-14 00:08:51
142,240210,Birao,CF,22.78,10.3,65,92,22.88,2.04,2019-08-14 00:08:53
143,2527089,Tiznit,MA,-9.73,29.7,0,88,19.28,4.26,2019-08-14 00:08:56
144,2160517,Launceston,AU,147.14,-41.43,90,100,7.0,2.1,2019-08-14 00:08:57
145,1648636,Bitung,ID,125.19,1.44,20,65,28.0,2.1,2019-08-14 00:08:59
146,1519385,Sergeyevka,KZ,67.42,53.88,55,82,15.18,1.58,2019-08-14 00:09:00
147,1259385,Port Blair,IN,92.75,11.67,100,81,28.48,8.04,2019-08-14 00:07:18
148,1005768,Ellisras,ZA,27.74,-23.67,0,70,12.28,3.9,2019-08-14 00:09:03
149,986717,Kruisfontein,ZA,24.73,-34.0,0,68,9.78,3.51,2019-08-14 00:09:05
150,3458147,Mafra,BR,-49.8,-26.12,0,68,9.28,1.52,2019-08-14 00:09:07
151,2517679,Fortuna,ES,-1.13,38.18,20,78,24.0,1.51,2019-08-14 00:09:09
152,3382160,Cayenne,GF,-52.33,4.94,20,94,24.0,1.0,2019-08-14 00:09:11
153,3372707,Ribeira Grande,PT,-28.7,38.52,0,84,22.38,3.86,2019-08-14 00:09:12
154,3423146,Ilulissat,GL,-51.1,69.22,20,35,13.0,4.6,2019-08-14 00:09:14
155,6320062,Vila Velha,BR,-38.6,-3.71,75,78,26.0,5.1,2019-08-14 00:09:15
156,245669,Adre,TD,22.2,13.47,100,78,22.28,3.33,2019-08-14 00:09:16
157,352733,Marsa Matruh,EG,27.25,31.35,0,88,25.0,2.39,2019-08-14 00:09:18
158,4231997,Avera,US,-82.53,33.19,1,52,33.6,3.1,2019-08-14 00:09:19
159,556268,Ostrovnoy,RU,39.51,68.05,89,93,10.48,5.23,2019-08-14 00:09:21
160,964432,Port Alfred,ZA,26.89,-33.59,0,68,9.88,3.0,2019-08-14 00:09:22
161,343292,Asosa,ET,34.53,10.07,94,92,17.18,1.65,2019-08-14 00:09:23
162,2124611,Kholodnyy,RU,147.95,62.72,2,47,13.28,2.91,2019-08-14 00:09:25
163,3661894,Tonantins,BR,-67.77,-2.86,0,57,25.88,0.54,2019-08-14 00:09:26
164,3698359,Chicama,PE,-79.15,-7.84,20,82,17.0,4.1,2019-08-14 00:09:28
165,3652758,Puerto Baquerizo Moreno,EC,-89.6,-0.9,0,73,22.0,5.7,2019-08-14 00:09:29
166,1852479,Shimabara,JP,130.33,32.79,40,59,30.86,6.7,2019-08-14 00:09:30
167,3435261,Concordia,AR,-58.02,-31.4,0,78,3.98,2.97,2019-08-14 00:09:33
168,6149374,Slave Lake,CA,-114.77,55.28,1,72,20.0,2.6,2019-08-14 00:09:14
169,1689191,San Julian,PH,125.45,11.75,41,70,27.48,2.85,2019-08-14 00:09:36
170,1056899,Sambava,MG,50.17,-14.27,35,93,17.68,1.43,2019-08-14 00:09:38
171,708057,Hryshkivtsi,UA,28.61,49.93,78,95,18.68,2.2,2019-08-14 00:09:40
172,2180815,Tuatapere,NZ,167.69,-46.13,100,67,8.08,9.05,2019-08-14 00:09:41
173,3386213,Touros,BR,-35.46,-5.2,75,88,24.0,2.6,2019-08-14 00:08:58
174,1529484,Hami,CN,93.51,42.84,0,12,26.78,5.38,2019-08-14 00:09:44
175,6089245,Norman Wells,CA,-126.83,65.28,90,93,13.0,1.0,2019-08-14 00:09:45
176,2013459,Verkh-Usugli,RU,115.17,52.7,100,71,11.88,1.63,2019-08-14 00:09:47
177,2014833,Tura,RU,100.22,64.27,31,75,14.98,1.5,2019-08-14 00:09:48
178,2059470,Victor Harbor,AU,138.62,-35.55,0,53,11.0,7.7,2019-08-14 00:06:13
179,3855065,General Roca,AR,-67.58,-39.03,0,45,9.0,4.1,2019-08-14 00:09:51
180,3419842,Sisimiut,GL,-53.67,66.94,4,70,7.48,1.19,2019-08-14 00:09:52
181,5922281,Chute-aux-Outardes,CA,-68.38,49.12,40,49,18.84,2.6,2019-08-14 00:09:53
182,2152659,Port Macquarie,AU,152.91,-31.43,0,62,11.0,2.6,2019-08-14 00:09:55
183,895953,Zambezi,ZM,23.12,-13.55,0,29,16.68,2.53,2019-08-14 00:09:56
184,1648082,Boyolangu,ID,111.9,-8.09,35,80,22.08,1.66,2019-08-14 00:09:58
185,1528998,Yumen,CN,97.04,40.29,0,16,23.08,2.38,2019-08-14 00:09:59
186,3432043,La Plata,AR,-57.95,-34.92,0,60,6.52,1.5,2019-08-14 00:05:26
187,3688689,Villa Maria,CO,-74.09,4.5,75,59,16.0,6.7,2019-08-14 00:10:02
188,1850144,Nishihara,JP,139.53,35.74,75,79,29.16,3.6,2019-08-14 00:10:03
189,1024312,Mocuba,MZ,36.99,-16.84,0,89,17.28,0.89,2019-08-14 00:10:05
190,1242110,Kalmunai,LK,81.82,7.42,93,78,24.38,1.18,2019-08-14 00:10:06
191,2396518,Port-Gentil,GA,8.78,-0.72,90,88,24.0,4.6,2019-08-14 00:10:07
192,3893629,Coquimbo,CL,-71.34,-29.95,0,76,14.0,2.1,2019-08-14 00:08:20
193,6180550,Whitehorse,CA,-135.06,60.72,75,35,22.0,0.64,2019-08-14 00:10:10
194,2123814,Leningradskiy,RU,178.42,69.38,100,97,0.28,7.56,2019-08-14 00:10:11
195,3385899,Tutoia,BR,-42.27,-2.76,48,79,24.88,2.36,2019-08-14 00:10:13
196,2413070,Nioro,GM,-15.05,13.79,49,76,25.78,5.1,2019-08-14 00:10:14
197,2126199,Cherskiy,RU,161.3,68.75,47,51,10.98,7.97,2019-08-14 00:10:16
198,3661980,Tamandare,BR,-70.75,-8.28,56,53,26.18,1.28,2019-08-14 00:10:17
199,3421193,Paamiut,GL,-49.67,61.99,99,76,5.58,8.83,2019-08-14 00:10:18
200,5969785,Hamilton,CA,-79.87,43.26,90,69,24.61,2.6,2019-08-14 00:10:20
201,2094342,Kavieng,PG,150.8,-2.57,75,78,28.48,6.98,2019-08-14 00:10:21
202,2347470,Miri,NG,9.75,10.31,59,91,21.48,1.2,2019-08-14 00:10:24
203,3354876,Okakarara,NA,17.46,-20.59,0,21,13.88,2.78,2019-08-14 00:10:25
204,581049,Arkhangelsk,RU,40.54,64.54,40,81,11.0,2.0,2019-08-14 00:10:27
205,1516905,Taraz,KZ,71.39,42.89,75,59,17.0,2.0,2019-08-14 00:10:28
206,2030065,Mandalgovi,MN,106.27,45.76,1,54,16.18,5.85,2019-08-14 00:10:29
207,6316343,Alta Floresta,BR,-56.08,-9.87,0,47,27.0,0.5,2019-08-14 00:10:31
208,4036284,Alofi,NU,-169.92,-19.06,40,69,27.0,4.1,2019-08-14 00:10:32
209,934322,Mahebourg,MU,57.7,-20.41,75,94,21.0,5.7,2019-08-14 00:10:34
210,5962442,Goderich,CA,-81.71,43.74,15,68,21.38,8.65,2019-08-14 00:10:35
211,1053384,Toamasina,MG,49.38,-18.17,40,100,19.0,1.05,2019-08-14 00:10:36
212,296562,Yozgat,TR,34.81,39.82,0,56,16.48,1.63,2019-08-14 00:10:38
213,1626542,Sorong,ID,131.25,-0.86,100,82,26.38,3.51,2019-08-14 00:10:39
214,336454,Ginir,ET,40.71,7.14,77,93,14.08,2.9,2019-08-14 00:10:42
215,5961417,Husavik,CA,-96.99,50.56,74,46,20.58,2.93,2019-08-14 00:10:43
216,3465745,Conceicao do Mato Dentro,BR,-43.42,-19.04,0,78,15.68,0.5,2019-08-14 00:10:44
217,3924679,Vilhena,BR,-60.15,-12.74,1,61,25.0,5.1,2019-08-14 00:10:48
218,3996234,Lazaro Cardenas,MX,-105.62,28.39,40,20,36.0,5.7,2019-08-14 00:07:11
219,1640344,Kendari,ID,122.52,-3.99,34,70,25.38,0.23,2019-08-14 00:10:51
220,157429,Kilindoni,TZ,39.67,-7.91,1,71,25.08,7.07,2019-08-14 00:10:53
221,2156643,Mount Gambier,AU,140.78,-37.83,2,81,9.0,4.6,2019-08-14 00:10:54
222,988290,Komatipoort,MZ,31.96,-25.43,5,93,13.98,0.92,2019-08-14 00:10:55
223,5597955,Kuna,US,-116.42,43.49,1,20,31.77,3.1,2019-08-14 00:08:56
224,3141310,Rorvik,NO,11.24,64.86,99,83,12.18,13.61,2019-08-14 00:10:58
225,3119841,Beira,ES,-8.36,43.2,0,87,13.94,2.6,2019-08-14 00:10:59
226,2760415,Zwettl,AT,15.17,48.6,100,93,11.28,2.18,2019-08-14 00:11:02
227,2127515,Wakkanai,JP,141.67,45.41,40,72,20.0,3.6,2019-08-14 00:11:03
228,1633419,Padang,ID,100.36,-0.92,75,94,25.0,1.5,2019-08-14 00:11:05
229,3526662,Teya,MX,-89.07,21.05,75,70,29.0,2.6,2019-08-14 00:11:06
230,2037086,Haicheng,CN,122.74,40.85,100,97,21.38,6.72,2019-08-14 00:11:08
231,1848373,Fukue,JP,136.69,35.03,75,79,30.55,12.3,2019-08-14 00:11:09
232,3848950,La Rioja,AR,-66.86,-29.41,55,54,5.88,2.17,2019-08-14 00:11:10
233,2063036,Port Lincoln,AU,135.86,-34.72,0,63,12.38,10.82,2019-08-14 00:11:12
234,777682,Skjervoy,NO,20.97,70.03,2,87,10.78,0.89,2019-08-14 00:11:13
235,3985710,Cabo San Lucas,MX,-109.91,22.89,20,59,32.58,4.6,2019-08-14 00:08:46
236,1023332,Alice,ZA,26.83,-32.79,0,86,5.98,1.04,2019-08-14 00:07:52
237,877178,Katima Mulilo,NA,24.28,-17.5,0,36,17.0,2.1,2019-08-14 00:11:18
238,472976,Vodnyy,RU,53.41,63.51,100,99,7.48,0.47,2019-08-14 00:11:20
239,3461638,Iacu,BR,-40.21,-12.77,0,76,20.68,1.29,2019-08-14 00:11:21
240,2381334,Atar,MR,-13.05,20.52,0,14,36.58,8.71,2019-08-14 00:11:23
241,548392,Dubrovka,RU,30.93,59.85,0,93,14.0,2.0,2019-08-14 00:11:24
242,2015306,Tiksi,RU,128.87,71.64,0,63,10.38,1.54,2019-08-14 00:11:25
243,1735902,Sibu,MY,111.83,2.29,75,94,23.0,1.0,2019-08-14 00:11:27
244,6154202,Springhill,CA,-64.06,45.64,33,66,16.48,1.96,2019-08-14 00:11:31
245,2012530,Zhigansk,RU,123.37,66.77,48,40,21.98,3.49,2019-08-14 00:11:32
246,1488903,Turukhansk,RU,87.96,65.8,67,81,13.78,2.04,2019-08-14 00:11:33
247,6138908,Saint-Philippe,CA,-73.48,45.36,1,64,23.5,3.33,2019-08-14 00:11:35
248,4013724,Camargo,MX,-105.17,27.69,17,42,27.08,15.05,2019-08-14 00:11:37
249,2071860,Esperance,AU,121.89,-33.86,43,100,9.0,2.6,2019-08-14 00:11:38
250,3935572,Mala,PE,-76.63,-12.66,34,83,14.88,0.19,2019-08-14 00:11:39
251,1511846,Oktyabrskoye,RU,85.44,56.73,0,100,8.0,2.0,2019-08-14 00:11:41
252,6111862,Port Hardy,CA,-127.42,50.7,40,77,19.0,2.1,2019-08-14 00:09:07
253,2098329,Daru,PG,143.21,-9.07,87,88,23.98,4.56,2019-08-14 00:11:45
254,490040,Sovetskiy,RU,48.47,56.76,100,83,8.08,0.68,2019-08-14 00:11:46
255,3157781,Fauske,NO,15.4,67.26,75,93,14.0,6.7,2019-08-14 00:11:48
256,3374210,Sao Filipe,CV,-24.5,14.9,3,85,24.28,5.65,2019-08-14 00:11:49
257,3451399,Ribas do Rio Pardo,BR,-53.76,-20.45,2,40,20.68,7.79,2019-08-14 00:11:52
258,6111881,Port Hope,CA,-78.29,43.95,1,39,26.0,3.6,2019-08-14 00:11:53
259,3711668,Rincon,PA,-82.28,8.46,40,100,26.0,1.0,2019-08-14 00:11:54
260,546105,Nikolskoye,RU,30.79,59.7,0,93,14.0,2.0,2019-08-14 00:11:56
261,3466980,Caravelas,BR,-39.27,-17.73,0,84,22.68,3.34,2019-08-14 00:11:57
262,3455168,Paracatu,BR,-46.87,-17.22,0,38,20.28,0.57,2019-08-14 00:11:58
263,2141722,Bouloupari,NC,166.05,-21.87,90,57,24.0,1.5,2019-08-14 00:12:00
264,3451138,Rio Grande,BR,-52.1,-32.03,25,82,5.28,2.48,2019-08-14 00:07:45
265,2267254,Lagoa,PT,-8.45,37.14,0,31,26.0,3.1,2019-08-14 00:12:02
266,3894426,Coihaique,CL,-72.07,-45.58,0,80,-0.14,1.5,2019-08-14 00:07:37
267,509269,Piterka,RU,47.44,50.68,69,73,11.68,3.21,2019-08-14 00:12:05
268,231696,Kayunga,UG,32.9,0.7,2,91,16.88,0.8,2019-08-14 00:12:08
269,3493032,San Pedro de Macoris,DO,-69.3,18.46,40,78,27.5,2.1,2019-08-14 00:12:09
270,5207728,Reading,US,-75.93,40.34,40,94,23.64,1.46,2019-08-14 00:10:10
271,1000501,Grahamstown,ZA,26.53,-33.31,0,68,9.88,3.0,2019-08-14 00:12:12
272,5969025,Haines Junction,CA,-137.51,60.75,100,40,18.18,3.5,2019-08-14 00:12:13
273,5554072,Juneau,US,-134.42,58.3,75,53,20.95,4.6,2019-08-14 00:09:16
274,4732862,Nome,US,-94.42,30.04,40,59,33.27,3.1,2019-08-14 00:12:16
275,2181625,Te Anau,NZ,167.72,-45.41,55,76,4.18,0.54,2019-08-14 00:12:18
276,1489853,Tazovskiy,RU,78.7,67.47,1,91,5.68,2.86,2019-08-14 00:12:20
277,3932145,Pisco,PE,-76.2,-13.71,90,30,22.0,3.1,2019-08-14 00:12:22
278,141736,Bam,IR,58.36,29.11,0,33,15.78,1.75,2019-08-14 00:12:23
279,2112802,Hasaki,JP,140.83,35.73,40,84,28.28,4.1,2019-08-14 00:12:25
280,1244926,Hambantota,LK,81.12,6.12,100,83,26.98,9.91,2019-08-14 00:12:26
281,5847411,Kahului,US,-156.47,20.89,40,48,28.53,8.7,2019-08-14 00:12:27
282,1337610,Thinadhoo,MV,72.93,0.53,100,78,27.98,4.25,2019-08-14 00:09:44
283,2122090,Pevek,RU,170.27,69.7,90,93,0.28,9.7,2019-08-14 00:12:30
284,3449747,Santa Vitoria do Palmar,BR,-53.37,-33.52,15,76,4.88,5.01,2019-08-14 00:12:31
285,2178753,Kirakira,SB,161.92,-10.46,79,69,28.18,1.5,2019-08-14 00:12:33
286,1805798,Longhua,CN,106.21,29.21,9,77,26.48,1.25,2019-08-14 00:12:34
287,1337612,Dhidhdhoo,MV,73.1,6.88,100,70,28.08,4.18,2019-08-14 00:12:36
288,2661756,Amriswil,CH,9.3,47.55,91,93,12.73,1.0,2019-08-14 00:12:37
289,5960603,Geraldton,CA,-86.95,49.72,75,52,18.0,2.6,2019-08-14 00:12:38
290,3354077,Opuwo,NA,13.84,-18.06,0,63,12.88,0.5,2019-08-14 00:12:40
291,548625,Alekseyevka,RU,50.49,53.25,75,67,15.0,5.0,2019-08-14 00:12:41
292,5861897,Fairbanks,US,-147.72,64.84,90,88,17.0,3.6,2019-08-14 00:09:03
293,3689718,Guasdualito,VE,-70.73,7.24,78,97,22.98,1.32,2019-08-14 00:12:45
294,2128815,Obihiro,JP,143.2,42.92,75,93,15.0,3.1,2019-08-14 00:12:46
295,1803936,Wuwei,CN,102.64,37.93,0,31,21.78,2.32,2019-08-14 00:12:48
296,519027,Novobelokatay,RU,58.96,55.7,63,97,13.08,3.68,2019-08-14 00:12:49
297,5916722,Carbonear,CA,-53.24,47.73,90,88,18.0,8.2,2019-08-14 00:12:51
298,3580733,Bodden Town,KY,-81.25,19.28,20,74,31.0,5.7,2019-08-14 00:12:52
299,3530886,Juxtlahuaca,MX,-99.15,17.43,2,90,20.48,1.75,2019-08-14 00:12:53
300,1731594,Alcantara,PH,123.41,9.97,32,79,25.28,2.78,2019-08-14 00:12:55
301,2015352,Terney,RU,136.61,45.05,95,91,15.18,1.31,2019-08-14 00:12:56
302,6068416,Mayo,CA,-135.9,63.59,75,63,18.0,1.5,2019-08-14 00:12:57
303,3893656,Copiapo,CL,-70.33,-27.37,75,87,12.0,5.7,2019-08-14 00:13:00
304,3353540,Rehoboth,NA,17.08,-23.31,0,14,8.28,1.36,2019-08-14 00:13:04
305,3573374,The Valley,AI,-63.06,18.22,20,69,28.53,5.1,2019-08-14 00:13:06
306,4032420,Neiafu,TO,-173.98,-18.65,75,88,25.0,1.0,2019-08-14 00:13:07
307,135298,Esfarayen,IR,57.51,37.08,0,44,15.0,2.28,2019-08-14 00:13:08
308,2249901,Gat,SN,-16.54,14.69,40,78,26.0,5.7,2019-08-14 00:13:10
309,2027296,Aykhal,RU,111.51,65.95,75,81,12.0,2.0,2019-08-14 00:13:11
310,2122104,Petropavlovsk-Kamchatskiy,RU,158.65,53.05,75,87,16.0,1.0,2019-08-14 00:13:12
311,1526041,Atasu,KZ,71.64,48.68,2,57,13.88,1.74,2019-08-14 00:13:14
312,3947322,Miraflores,PE,-71.52,-16.39,0,12,18.0,1.0,2019-08-14 00:13:15
313,6322184,Porto Novo,BR,-45.44,-23.68,75,77,17.0,1.5,2019-08-14 00:13:17
314,2022304,Khorinsk,RU,109.78,52.16,32,89,8.88,1.37,2019-08-14 00:13:18
315,477744,Utevka,RU,50.95,52.9,17,89,10.58,4.02,2019-08-14 00:13:19
316,915471,Kalabo,ZM,22.67,-15.0,0,27,15.08,2.54,2019-08-14 00:13:21
317,305681,Kumluca,TR,30.29,36.37,0,43,18.98,1.32,2019-08-14 00:13:22
318,2995603,Saint-Pierre,FR,4.24,48.95,0,87,14.0,1.5,2019-08-14 00:13:24
319,5973108,Hearst,CA,-83.67,49.69,86,83,14.58,1.74,2019-08-14 00:13:25
320,2429344,Kyabe,TD,18.94,9.45,87,98,21.68,1.24,2019-08-14 00:13:26
321,3421319,Nuuk,GL,-51.74,64.17,42,54,12.0,3.1,2019-08-14 00:13:28
322,1856392,Muroto,JP,134.14,33.37,75,58,31.0,3.1,2019-08-14 00:13:29
323,1634614,Nabire,ID,135.5,-3.36,99,96,21.58,1.1,2019-08-14 00:13:30
324,2087894,Rabaul,PG,152.17,-4.2,0,74,28.88,6.69,2019-08-14 00:13:32
325,3609418,San Cristobal,HN,-86.92,14.68,9,57,24.58,2.73,2019-08-14 00:13:33
326,3102488,Orlik,PL,17.74,53.95,0,93,13.0,4.1,2019-08-14 00:13:35
327,3355672,Luderitz,NA,15.16,-26.65,0,54,13.0,4.6,2019-08-14 00:13:37
328,1293625,Dawei,MM,98.19,14.07,100,78,27.68,3.58,2019-08-14 00:13:39
329,471160,Voznesenye,RU,35.48,61.02,50,98,11.18,1.68,2019-08-14 00:13:40
330,2270385,Camacha,PT,-16.33,33.08,20,68,21.56,5.1,2019-08-14 00:13:41
331,2126682,Bilibino,RU,166.44,68.06,98,71,4.38,4.74,2019-08-14 00:13:43
332,262462,Saint George,GR,22.34,39.45,0,56,21.94,2.1,2019-08-14 00:13:44
333,6620339,Karratha,AU,116.85,-20.74,100,65,21.58,0.79,2019-08-14 00:13:46
334,4228147,Valdosta,US,-83.28,30.83,1,59,32.82,1.62,2019-08-14 00:13:47
335,588365,Vao,EE,26.19,59.1,17,94,12.08,3.28,2019-08-14 00:13:48
336,699777,Nova Vodolaha,UA,35.86,49.72,0,53,22.0,3.0,2019-08-14 00:13:50
337,2192362,Christchurch,NZ,172.64,-43.53,88,57,10.0,7.7,2019-08-14 00:10:36
338,5866063,Kenai,US,-151.26,60.55,75,56,23.02,9.8,2019-08-14 00:10:34
339,2032201,Bulgan,MN,103.53,48.81,56,80,11.08,1.13,2019-08-14 00:13:54
340,2088122,Port Moresby,PG,147.16,-9.47,40,83,26.0,2.6,2019-08-14 00:13:55
341,334700,Doba,ET,41.09,9.29,32,65,21.98,3.12,2019-08-14 00:13:56
342,98182,Baghdad,IQ,44.38,33.3,0,24,33.0,2.6,2019-08-14 00:13:59
343,6542009,Savona,IT,8.48,44.31,0,78,23.66,2.6,2019-08-14 00:14:00
344,3996663,Manzanillo,MX,-104.32,19.05,75,70,31.0,2.61,2019-08-14 00:14:04
345,371745,Kutum,SD,24.66,14.2,68,67,23.28,9.08,2019-08-14 00:14:06
346,3430443,Necochea,AR,-58.74,-38.55,54,78,2.48,0.24,2019-08-14 00:10:31
347,1082243,Ambilobe,MG,49.05,-13.19,0,81,18.88,1.99,2019-08-14 00:14:08
348,3942259,Coracora,PE,-73.78,-15.02,3,45,8.98,0.39,2019-08-14 00:14:10
349,6077243,Sainte-Rose,CA,-73.79,45.61,20,38,23.65,4.1,2019-08-14 00:14:11
350,86049,Jalu,LY,21.55,29.03,0,69,23.68,3.61,2019-08-14 00:14:13
351,2173911,Broken Hill,AU,141.45,-31.97,0,45,9.0,5.7,2019-08-14 00:14:14
352,6144195,Senneterre,CA,-77.24,48.39,75,63,16.0,1.5,2019-08-14 00:14:15
353,3533462,Acapulco,MX,-99.88,16.86,20,70,31.0,5.1,2019-08-14 00:10:19
354,3567995,Bahia Honda,CU,-83.16,22.9,10,65,29.88,2.57,2019-08-14 00:14:18
355,2037799,Datong,CN,113.3,40.09,89,42,21.28,3.68,2019-08-14 00:14:20
356,1264912,Limbdi,IN,71.81,22.57,100,88,25.58,4.27,2019-08-14 00:14:22
357,2337542,Naze,NG,7.07,5.43,77,94,23.28,2.13,2019-08-14 00:14:23
358,3393838,Nova Olinda do Norte,BR,-59.1,-3.89,56,48,27.08,0.88,2019-08-14 00:14:25
359,3397119,Jucas,BR,-39.53,-6.53,0,47,23.18,3.89,2019-08-14 00:14:26
360,1707770,Laminusa,PH,120.91,5.55,92,79,28.18,4.97,2019-08-14 00:14:29
361,2639912,Preston,GB,-2.71,53.76,20,82,12.31,2.6,2019-08-14 00:14:30
362,4002224,Lagos de Moreno,MX,-101.93,21.36,5,32,26.49,3.1,2019-08-14 00:14:35
363,5919850,Chapais,CA,-74.86,49.78,90,71,13.0,2.1,2019-08-14 00:14:36
364,1865309,Katsuura,JP,134.5,33.93,40,79,28.44,1.5,2019-08-14 00:14:38
365,3463140,Formosa,BR,-47.33,-15.55,0,40,18.68,2.8,2019-08-14 00:14:39
366,3401148,Cururupu,BR,-44.87,-1.82,64,93,23.38,1.37,2019-08-14 00:14:40
367,149768,Makuyuni,TZ,38.33,-5.02,26,86,18.88,3.19,2019-08-14 00:14:42
368,3184575,Orikum,AL,19.47,40.33,0,76,27.28,3.27,2019-08-14 00:14:43
369,1516589,Zhezkazgan,KZ,67.71,47.8,58,68,13.68,2.13,2019-08-14 00:14:45
370,2737599,Saldanha,PT,-6.55,41.42,14,47,16.88,1.4,2019-08-14 00:14:46
371,3388847,Sao Felix do Xingu,BR,-51.99,-6.64,25,43,25.68,1.2,2019-08-14 00:10:25
372,2037485,Erenhot,CN,111.97,43.65,13,41,22.88,6.16,2019-08-14 00:14:51
373,1688687,San Quintin,PH,120.52,17.54,97,88,26.48,5.64,2019-08-14 00:14:52
374,2194098,Ahipara,NZ,173.16,-35.17,85,74,14.38,9.69,2019-08-14 00:14:54
375,3114567,Palafrugell,ES,3.16,41.92,20,68,18.0,1.5,2019-08-14 00:14:55
376,1014653,Burgersdorp,ZA,26.32,-30.99,0,33,4.18,0.73,2019-08-14 00:14:57
377,3587018,Chirilagua,SV,-88.14,13.22,75,79,33.06,2.6,2019-08-14 00:14:58
378,2240449,Luanda,AO,13.24,-8.83,20,94,21.0,3.1,2019-08-14 00:14:59
379,934649,Cap Malheureux,MU,57.61,-19.98,75,94,21.0,5.7,2019-08-14 00:15:01
380,1267390,Kavaratti,IN,72.64,10.57,100,81,26.88,11.89,2019-08-14 00:15:02
381,122915,Nahavand,IR,48.37,34.19,62,59,20.53,0.22,2019-08-14 00:15:03
382,2392505,Nikki,BJ,3.21,9.94,5,95,21.98,2.49,2019-08-14 00:15:06
383,1152222,Mae Hong Son,MM,97.96,19.3,100,99,21.88,1.36,2019-08-14 00:15:07
384,1106643,Quatre Cocos,MU,57.76,-20.21,75,94,21.0,5.7,2019-08-14 00:15:09
385,965301,Edendale,ZA,30.31,-29.65,6,82,7.68,1.79,2019-08-14 00:15:10
386,5952370,Fernie,CA,-115.06,49.5,75,31,24.39,2.1,2019-08-14 00:15:12
387,2155562,Nelson Bay,AU,152.14,-32.72,20,50,11.0,4.6,2019-08-14 00:15:13
388,2013392,Vilyuysk,RU,121.63,63.75,0,52,20.38,1.94,2019-08-14 00:15:14
389,1273294,Dwarka,IN,77.04,28.58,90,100,26.0,2.23,2019-08-14 00:15:17
390,1519691,Sarkand,KZ,79.91,45.41,98,30,22.68,1.63,2019-08-14 00:15:18
391,3037456,Saint-Joseph,FR,6.97,43.56,0,77,21.35,1.5,2019-08-14 00:15:20
392,2079582,Alyangula,AU,136.42,-13.85,49,64,23.0,2.6,2019-08-14 00:15:21
393,3402648,Carutapera,BR,-46.02,-1.2,43,86,25.18,3.09,2019-08-14 00:15:23
394,286621,Salalah,OM,54.1,17.01,90,88,26.0,1.5,2019-08-14 00:15:24
395,3662489,Santa Isabel do Rio Negro,BR,-65.02,-0.41,65,67,27.28,0.81,2019-08-14 00:15:26
396,2419533,Galle,GN,-12.83,10.08,86,98,22.38,1.54,2019-08-14 00:15:27
397,3532499,Tecoanapa,MX,-99.26,16.99,40,74,30.0,4.6,2019-08-14 00:15:29
398,5961417,Gimli,CA,-96.99,50.63,69,52,20.98,3.4,2019-08-14 00:15:30
399,5314245,Show Low,US,-110.03,34.25,1,15,30.62,2.6,2019-08-14 00:15:31
400,3036965,Le Port,FR,1.37,42.87,68,84,11.68,0.7,2019-08-14 00:15:33
401,258175,Lixourion,GR,20.43,38.2,0,78,27.28,2.74,2019-08-14 00:15:35
402,3496021,Nagua,DO,-69.85,19.37,40,74,30.0,2.6,2019-08-14 00:15:36
403,2250645,Kedougou,SN,-12.19,12.56,42,92,24.78,2.55,2019-08-14 00:15:37
404,1337613,Kulhudhuffushi,MV,73.07,6.62,100,75,27.98,5.99,2019-08-14 00:15:39
405,1788852,Xining,CN,101.77,36.62,1,58,10.98,0.26,2019-08-14 00:15:40
406,1795565,Shenzhen,CN,114.05,22.54,20,83,29.0,2.1,2019-08-14 00:15:42
407,610864,Khani,GE,42.96,41.96,0,100,19.0,1.0,2019-08-14 00:15:44
408,1623197,Tual,ID,132.75,-5.67,97,86,24.68,7.51,2019-08-14 00:15:46
409,3379316,Bonfim,GY,-59.84,3.36,65,77,26.18,2.9,2019-08-14 00:15:47
410,3394745,Mocajuba,BR,-49.5,-2.58,72,77,26.48,0.99,2019-08-14 00:15:49
411,523392,Naryan-Mar,RU,53.09,67.67,87,76,5.18,2.81,2019-08-14 00:15:51
412,2013279,Vostok,RU,135.83,46.45,87,70,18.88,1.3,2019-08-14 00:15:53
413,5129852,Oneonta,US,-75.06,42.45,82,93,19.88,1.43,2019-08-14 00:15:54
414,5815342,Wenatchee,US,-120.31,47.42,1,28,29.69,3.1,2019-08-14 00:11:21
415,6162951,Terrace Bay,CA,-87.1,48.78,97,57,17.38,3.5,2019-08-14 00:15:57
416,2164771,Grafton,AU,152.93,-29.69,0,67,17.0,1.5,2019-08-14 00:15:59
417,57000,Hobyo,SO,48.53,5.35,85,75,24.78,9.48,2019-08-14 00:16:00
418,3602137,San Jose,HN,-87.96,14.25,1,38,31.0,2.6,2019-08-14 00:15:39
419,3948642,Abancay,PE,-72.88,-13.64,51,83,9.98,2.33,2019-08-14 00:16:03
420,3663495,Manoel Urbano,BR,-69.26,-8.84,25,41,27.28,1.08,2019-08-14 00:16:05
421,2129868,Iwanai,JP,140.51,42.97,81,83,19.38,2.94,2019-08-14 00:16:06
422,1687801,Santiago,PH,121.54,16.69,85,77,26.68,0.44,2019-08-14 00:16:07
423,3037899,Ambon,FR,-2.56,47.55,0,87,15.36,1.0,2019-08-14 00:16:09
424,4372777,Vardo,US,-77.74,39.62,20,78,25.61,2.1,2019-08-14 00:16:10
425,64814,Bandarbeyla,SO,50.81,9.49,8,64,25.18,14.86,2019-08-14 00:16:12
426,2097418,Finschhafen,PG,147.85,-6.6,100,96,19.28,0.67,2019-08-14 00:16:13
427,5380437,Pacific Grove,US,-121.92,36.62,1,56,24.98,4.6,2019-08-14 00:16:14
428,4167694,Panama City,US,-85.65,30.16,20,79,31.09,3.6,2019-08-14 00:12:21
429,3520271,Nuevo Progreso,US,-97.95,26.05,1,44,34.51,8.2,2019-08-14 00:16:17
430,3381428,Iracoubo,GF,-53.21,5.48,97,92,24.38,1.54,2019-08-14 00:16:18
431,2027806,Amazar,RU,120.88,53.86,52,50,16.88,0.8,2019-08-14 00:16:20
432,1161724,Chabahar,IR,60.65,25.29,0,79,29.0,2.01,2019-08-14 00:16:21
433,2093685,Kokopo,PG,152.27,-4.34,0,57,30.08,1.52,2019-08-14 00:16:23
434,588335,Kardla,EE,26.57,58.44,20,87,12.0,1.0,2019-08-14 00:16:24
435,5354943,Half Moon Bay,US,-122.43,37.46,1,42,28.03,6.7,2019-08-14 00:16:25
436,2126710,Beringovskiy,RU,179.32,63.05,45,64,14.88,7.47,2019-08-14 00:16:27
437,3382226,Camopi,GF,-52.33,3.17,94,97,22.78,1.99,2019-08-14 00:16:28
438,787487,Poum,MK,20.71,41.28,0,53,19.18,1.38,2019-08-14 00:16:31
439,425378,Matara,BI,29.48,-3.48,0,52,10.48,0.69,2019-08-14 00:16:32
440,899274,Samfya,ZM,29.56,-11.37,0,41,15.28,3.76,2019-08-14 00:16:34
441,3178754,Chiusi,IT,11.95,43.02,80,40,23.0,1.0,2019-08-14 00:16:35
442,4209448,Milledgeville,US,-83.23,33.08,1,55,32.21,2.64,2019-08-14 00:14:03
443,3572924,Alice Town,BS,-79.3,25.72,44,76,29.78,6.76,2019-08-14 00:16:38
444,1486321,Yar-Sale,RU,70.83,66.83,90,84,6.88,3.36,2019-08-14 00:16:39
445,3452331,Presidente Epitacio,BR,-52.12,-21.76,5,37,21.18,5.25,2019-08-14 00:12:32
446,2646393,Huntingdon,GB,-0.18,52.33,20,81,10.5,2.18,2019-08-14 00:12:55
447,3402429,Caucaia,BR,-38.66,-3.73,75,78,26.0,5.1,2019-08-14 00:16:43
448,3581398,Laguna,BZ,-88.94,16.17,40,74,29.0,2.1,2019-08-14 00:16:44
449,3448903,Sao Joao da Barra,BR,-41.05,-21.64,0,78,24.0,7.2,2019-08-14 00:16:46
450,1070940,Fenoarivo,MG,47.44,-18.93,20,93,11.0,2.6,2019-08-14 00:16:47
451,3899695,Ancud,CL,-73.83,-41.87,0,86,4.0,2.6,2019-08-14 00:16:49
452,236950,Obo,CF,26.49,5.39,58,94,19.78,0.33,2019-08-14 00:16:50
453,3385670,Urucara,BR,-57.76,-2.54,9,51,28.38,1.37,2019-08-14 00:16:51
454,577240,Bereznik,RU,42.71,62.86,99,73,11.48,3.3,2019-08-14 00:16:53
455,3015267,Grand-Couronne,FR,1.0,49.35,75,93,13.69,2.98,2019-08-14 00:16:54
456,3374083,Bathsheba,BB,-59.52,13.22,94,78,27.98,8.05,2019-08-14 00:16:56
457,1494088,Promyshlennyy,RU,63.92,67.58,83,77,5.78,2.1,2019-08-14 00:16:57
458,352628,Matay,EG,30.79,28.42,0,49,24.68,2.69,2019-08-14 00:16:58
459,4021858,Guerrero Negro,MX,-114.04,27.97,0,77,20.38,5.49,2019-08-14 00:17:00
460,3894406,Coihueco,CL,-71.83,-36.63,96,71,12.0,2.6,2019-08-14 00:17:01
461,3514843,Vega de Alatorre,MX,-96.65,20.03,29,77,28.08,1.0,2019-08-14 00:17:03
462,2112444,Kamaishi,JP,141.86,39.28,75,83,23.0,1.0,2019-08-14 00:17:04
463,2120591,Tilichiki,RU,166.1,60.47,100,74,14.48,1.78,2019-08-14 00:17:05
464,3027513,Challans,FR,-1.88,46.85,0,93,14.34,1.5,2019-08-14 00:17:07
465,3421765,Nanortalik,GL,-45.24,60.14,72,77,6.28,0.91,2019-08-14 00:16:32
466,486413,Suksun,RU,57.4,57.15,67,96,11.38,4.17,2019-08-14 00:17:10
467,2158744,Margate,AU,147.26,-43.03,20,75,8.0,5.1,2019-08-14 00:17:11
468,2027042,Batagay-Alyta,RU,130.41,67.8,40,39,16.68,1.58,2019-08-14 00:17:13
469,1808534,Helong,CN,116.13,25.94,62,79,26.58,0.58,2019-08-14 00:17:14
470,207570,Mwene-Ditu,CD,23.45,-7.01,1,36,21.48,1.02,2019-08-14 00:17:16
471,72181,Marzuq,YE,46.47,14.4,71,35,26.78,0.62,2019-08-14 00:16:46
472,1861084,Izumo,JP,132.75,35.37,75,66,29.44,8.7,2019-08-14 00:17:18
473,3181864,Bordighera,IT,7.66,43.79,0,69,22.14,4.1,2019-08-14 00:17:20
474,3839307,Rawson,AR,-65.11,-43.3,71,50,5.48,3.21,2019-08-14 00:17:21
475,1520327,Osakarovka,KZ,72.58,50.56,22,63,14.38,2.47,2019-08-14 00:17:23
476,4568570,Vieques,PR,-65.83,18.43,40,70,29.35,6.2,2019-08-14 00:17:24
477,3372745,Rabo de Peixe,PT,-25.58,37.8,20,88,20.0,1.0,2019-08-14 00:17:26
478,4845585,Westport,US,-73.36,41.14,75,94,22.6,2.1,2019-08-14 00:17:27
479,2138607,Pouebo,NC,164.57,-20.4,87,76,22.28,1.27,2019-08-14 00:17:28
480,2969562,Vesoul,FR,6.16,47.62,0,93,10.0,1.5,2019-08-14 00:17:30
481,2422968,Boffa,GN,-14.04,10.18,77,90,25.98,5.71,2019-08-14 00:17:31
482,174448,Abu Kamal,SY,40.92,34.45,22,39,29.38,4.55,2019-08-14 00:17:33
483,1271734,Gandai,IN,81.1,21.67,100,92,23.98,4.57,2019-08-14 00:17:34
484,2439376,Tahoua,NE,5.26,14.89,0,62,30.0,4.1,2019-08-14 00:17:35
485,876233,Leua,AO,20.45,-11.65,0,37,14.88,2.28,2019-08-14 00:17:37
486,1253628,Lata,IN,78.62,30.78,100,98,7.78,1.06,2019-08-14 00:17:38
487,1267635,Karwar,IN,74.13,14.8,100,87,25.78,2.86,2019-08-14 00:17:41
488,2093846,Kiunga,PG,141.3,-6.12,100,97,22.68,1.79,2019-08-14 00:17:42
489,6078372,Moose Factory,CA,-80.61,51.26,90,87,14.0,2.6,2019-08-14 00:17:44
490,3442750,Dolores,UY,-58.22,-33.53,4,69,5.58,1.75,2019-08-14 00:17:45
491,934479,Grand Gaube,MU,57.66,-20.01,75,78,22.0,6.7,2019-08-14 00:17:46
492,2288105,Grand-Lahou,CI,-5.0,5.24,56,88,23.18,2.29,2019-08-14 00:17:48
493,1580240,Hue,VN,107.58,16.47,75,62,30.0,0.5,2019-08-14 00:17:49
494,3517241,Santa Maria la Alta,MX,-97.67,18.6,9,63,24.08,1.08,2019-08-14 00:17:51
495,3427208,Pilar,AR,-58.91,-34.46,20,49,6.96,2.6,2019-08-14 00:13:25
496,3416888,Grindavik,IS,-22.43,63.84,40,75,7.48,9.3,2019-08-14 00:17:53
497,4975802,Portland,US,-70.25,43.66,90,88,21.51,1.5,2019-08-14 00:15:30
498,1491267,Sosva,RU,61.86,59.17,100,98,12.68,3.3,2019-08-14 00:17:56
499,3686196,Clemencia,CO,-75.33,10.57,40,79,30.0,5.1,2019-08-14 00:17:57
500,460786,Broceni,LV,22.53,56.7,33,95,12.88,3.38,2019-08-14 00:17:59
501,292968,Abu Dhabi,AE,54.37,24.47,0,67,34.53,1.0,2019-08-14 00:13:03
502,3671437,Puerto Leguizamo,CO,-74.78,-0.19,90,99,21.58,1.31,2019-08-14 00:18:01
503,1065158,Farafangana,MG,47.83,-22.82,13,96,16.58,0.67,2019-08-14 00:18:03
504,1726279,Sabang,PH,121.11,13.8,60,76,27.28,4.13,2019-08-14 00:18:04
505,636947,Siilinjarvi,FI,27.67,63.08,0,93,14.0,3.1,2019-08-14 00:18:07
506,8010472,Belmonte,PT,-7.35,40.36,9,60,13.98,0.89,2019-08-14 00:18:08
507,1650527,Balikpapan,ID,116.86,-1.24,40,88,27.0,3.6,2019-08-14 00:18:10
508,2655984,Belfast,GB,-5.93,54.6,92,87,13.0,1.51,2019-08-14 00:14:30
509,1705460,Luba,PH,120.7,17.32,97,88,26.48,5.64,2019-08-14 00:18:12
510,780643,Bjornevatn,NO,29.98,69.67,90,100,7.0,6.2,2019-08-14 00:18:14
511,2636432,Baglan,GB,-3.81,51.62,100,82,16.49,10.3,2019-08-14 00:18:15
512,2173125,Burnie,AU,145.91,-41.05,97,86,9.48,1.45,2019-08-14 00:18:17
513,698438,Ordzhonikidze,UA,35.36,44.96,0,55,17.18,1.78,2019-08-14 00:18:18
514,146639,Emba,CY,32.42,34.81,40,73,24.07,3.6,2019-08-14 00:18:19
515,2027933,Aleksandrovskiy Zavod,RU,117.94,50.92,16,60,14.88,1.47,2019-08-14 00:18:21
516,2122389,Ossora,RU,163.07,59.24,53,73,16.48,1.92,2019-08-14 00:18:22
517,2062276,Roebourne,AU,117.15,-20.77,100,66,21.38,0.73,2019-08-14 00:18:23
518,2312888,Mbanza-Ngungu,CD,14.87,-5.25,4,74,20.98,1.67,2019-08-14 00:18:25
519,548791,Kichmengskiy Gorodok,RU,45.81,59.99,100,68,9.58,1.77,2019-08-14 00:18:26
520,1226260,Trincomalee,LK,81.23,8.58,87,77,25.98,4.78,2019-08-14 00:14:27
521,2319078,Wawa,NG,4.41,9.9,10,94,22.28,1.71,2019-08-14 00:18:30
522,477940,Ust-Tsilma,RU,52.15,65.44,77,90,8.28,1.53,2019-08-14 00:18:32
523,1214073,Rantauprapat,ID,99.83,2.1,100,95,19.48,1.45,2019-08-14 00:18:33
524,2282006,San-Pedro,CI,-6.64,4.75,90,93,22.28,1.68,2019-08-14 00:18:34
525,1062663,Mahajanga,MG,46.32,-15.72,20,57,24.0,5.7,2019-08-14 00:18:36
526,610298,Beyneu,KZ,55.19,45.32,4,33,17.18,5.26,2019-08-14 00:18:39
527,3441894,Maldonado,UY,-54.96,-34.91,75,75,6.0,8.2,2019-08-14 00:18:41
528,1706466,Ligayan,PH,119.47,4.65,99,79,27.88,3.21,2019-08-14 00:18:44
529,1127110,Sar-e Pul,AF,65.93,36.22,0,30,19.58,3.67,2019-08-14 00:18:45
530,1697549,Osmena,PH,124.59,12.17,24,75,28.88,8.42,2019-08-14 00:18:47
531,740430,Safranbolu,TR,32.69,41.25,0,49,20.28,1.47,2019-08-14 00:18:49
532,2154826,Wonthaggi,AU,145.59,-38.6,79,93,10.08,3.3,2019-08-14 00:18:51
533,2630299,Hofn,IS,-15.21,64.25,87,89,1.08,4.78,2019-08-14 00:18:53
534,780687,Berlevag,NO,29.09,70.86,100,92,6.48,6.49,2019-08-14 00:18:56
535,2122605,Okhotsk,RU,143.24,59.36,0,53,21.38,3.37,2019-08-14 00:18:57
536,1078553,Ampanihy,MG,44.75,-24.69,17,98,17.08,2.23,2019-08-14 00:18:59
537,2186895,Methven,NZ,171.65,-43.63,63,66,8.58,1.87,2019-08-14 00:19:01
538,2835537,Schwabach,DE,11.02,49.33,0,87,11.25,2.1,2019-08-14 00:19:03
539,172515,Abu Samrah,SY,37.18,35.3,0,58,23.38,3.93,2019-08-14 00:19:06
540,527321,Mezen,RU,44.24,65.85,99,67,7.88,3.24,2019-08-14 00:19:07
541,3380290,Sinnamary,GF,-52.96,5.38,70,77,28.08,5.5,2019-08-14 00:19:08
542,6160362,Swan River,CA,-101.27,52.11,100,61,16.28,1.6,2019-08-14 00:19:10
543,5864145,Homer,US,-151.54,59.64,40,72,22.17,7.2,2019-08-14 00:19:11
544,942470,Vryheid,ZA,30.79,-27.77,0,93,8.08,1.27,2019-08-14 00:19:12
545,300640,Sirnak,TR,42.46,37.52,0,20,26.58,1.44,2019-08-14 00:19:14
546,1785036,Zhangye,CN,100.46,38.94,0,32,20.58,3.03,2019-08-14 00:19:15
547,3347353,Menongue,AO,17.68,-14.66,0,35,12.98,2.04,2019-08-14 00:19:17
548,2233805,Bogo,CM,14.61,10.74,94,82,24.18,1.07,2019-08-14 00:19:18
549,3159954,Bronnoysund,NO,12.2,65.46,100,93,11.0,7.2,2019-08-14 00:19:20
550,2374583,Bubaque,GW,-15.83,11.28,100,86,26.58,6.3,2019-08-14 00:19:21
551,3981460,Coahuayana,MX,-100.35,18.62,12,78,28.48,0.77,2019-08-14 00:19:22
552,3860443,Comodoro Rivadavia,AR,-67.48,-45.87,0,67,3.0,2.1,2019-08-14 00:14:57
553,4792494,Waverly,US,-77.1,37.04,1,83,26.0,1.5,2019-08-14 00:19:25
554,1529651,Altay,CN,88.13,47.83,0,41,14.78,3.82,2019-08-14 00:19:26
555,1215502,Banda Aceh,ID,95.32,5.56,100,77,27.98,8.28,2019-08-14 00:19:28
556,178522,Voi,KE,38.57,-3.4,95,85,18.28,4.03,2019-08-14 00:19:29
557,2180991,Tolaga Bay,NZ,178.3,-38.37,39,47,13.88,2.44,2019-08-14 00:19:31
558,1220164,Vorukh,KG,70.57,39.85,0,33,16.38,5.94,2019-08-14 00:19:33
559,4944903,Nantucket,US,-70.1,41.28,90,94,21.21,3.1,2019-08-14 00:19:36
560,3723593,Jeremie,HT,-74.12,18.65,32,75,28.18,2.31,2019-08-14 00:19:38
561,3843123,Neuquen,AR,-68.06,-38.95,0,49,8.0,4.6,2019-08-14 00:19:14
562,3892454,Diego de Almagro,CL,-70.05,-26.39,68,67,11.18,1.26,2019-08-14 00:19:40
563,146639,Lasa,CY,32.53,34.92,40,73,24.0,3.6,2019-08-14 00:19:42
564,5601615,Mountain Home,US,-115.69,43.13,75,15,32.0,4.1,2019-08-14 00:19:45
565,475469,Verkhnetulomskiy,RU,31.8,68.61,75,87,12.0,1.97,2019-08-14 00:19:46
566,1337607,Kudahuvadhoo,MV,72.89,2.67,99,73,27.98,1.81,2019-08-14 00:19:47
567,3971596,Ures,MX,-112.95,30.73,0,32,36.48,4.83,2019-08-14 00:19:49
568,1717512,Buluang,PH,123.98,10.47,40,70,30.0,5.7,2019-08-14 00:19:50
569,206362,Kulu,CD,23.69,3.47,38,93,21.08,0.21,2019-08-14 00:19:52
570,3521972,Panaba,MX,-88.27,21.28,1,76,28.08,4.1,2019-08-14 00:19:53
571,561698,Gayny,RU,54.33,60.3,100,98,9.48,0.75,2019-08-14 00:19:54
572,2332459,Lagos,NG,3.39,6.46,20,94,24.0,1.5,2019-08-14 00:19:56
573,3356832,Henties Bay,NA,14.28,-22.12,0,90,12.68,3.35,2019-08-14 00:19:58
574,2339937,Auki,NG,6.51,12.18,5,90,23.08,3.89,2019-08-14 00:20:01
575,4922388,Kokomo,US,-86.13,40.49,75,74,26.5,4.1,2019-08-14 00:19:04
576,1510377,Belyy Yar,RU,91.39,53.6,0,93,9.0,0.99,2019-08-14 00:20:04
577,212902,Kindu,CD,25.92,-2.95,0,70,23.18,0.7,2019-08-14 00:20:05
578,1622318,Waingapu,ID,120.26,-9.65,2,71,23.58,6.24,2019-08-14 00:17:45
579,507624,Pokhvistnevo,RU,52.12,53.65,4,96,8.78,4.6,2019-08-14 00:20:08
580,2150163,Sawtell,AU,153.1,-30.38,75,77,17.0,1.5,2019-08-14 00:20:10
581,2638419,Scarborough,GB,-0.41,54.28,41,87,8.66,2.1,2019-08-14 00:20:11
582,3347019,Namibe,AO,12.15,-15.19,33,89,17.88,2.93,2019-08-14 00:18:52
583,4891382,Evanston,US,-87.69,42.04,90,88,23.5,5.1,2019-08-14 00:20:04
584,5991056,Kenora,CA,-94.48,49.76,99,40,21.57,4.1,2019-08-14 00:20:15
585,1300466,Bago,MM,96.48,17.34,90,88,25.0,1.5,2019-08-14 00:20:05
586,735418,Limenaria,GR,24.58,40.63,0,64,26.18,7.07,2019-08-14 00:20:18
587,3870243,Taltal,CL,-70.49,-25.41,81,83,11.28,1.14,2019-08-14 00:20:20
588,5554428,Ketchikan,US,-131.65,55.34,1,53,21.98,5.7,2019-08-14 00:16:51
589,3412093,Vestmannaeyjar,IS,-20.27,63.44,63,74,9.78,7.32,2019-08-14 00:20:22
590,2445488,Dosso,NE,3.19,13.05,1,71,26.88,4.7,2019-08-14 00:20:24
591,2274895,Monrovia,LR,-10.8,6.33,75,100,24.0,4.44,2019-08-14 00:20:25
592,2245170,Podor,MR,-14.96,16.65,0,65,28.0,3.1,2019-08-14 00:20:26
593,2179103,Whitianga,NZ,175.7,-36.83,36,66,13.48,6.04,2019-08-14 00:20:28
594,4707814,Longview,US,-94.74,32.5,40,42,36.64,1.24,2019-08-14 00:20:29
595,3664980,Boa Vista,BR,-60.67,2.82,0,78,28.0,1.5,2019-08-14 00:20:31
596,2610343,Vestmanna,FO,-7.17,62.16,0,93,9.0,3.1,2019-08-14 00:20:32
597,3430545,San Miguel,AR,-58.72,-34.54,0,52,5.97,1.5,2019-08-14 00:20:34
598,1641342,Karangampel,ID,108.44,-6.46,0,69,24.88,2.36,2019-08-14 00:20:35
599,2027044,Batagay,RU,134.64,67.65,17,42,20.88,0.99,2019-08-14 00:20:36
600,1172888,Kot Samaba,PK,70.47,28.55,2,58,31.98,5.24,2019-08-14 00:20:38
601,2037494,Erdaojiang,CN,126.03,41.78,43,91,23.28,4.24,2019-08-14 00:20:39
602,1797181,Renqiu,CN,116.1,38.71,86,76,25.38,2.36,2019-08-14 00:20:41
603,5847486,Kailua,US,-157.74,21.39,90,70,30.77,5.1,2019-08-14 00:20:42
604,3939168,Huarmey,PE,-78.15,-10.07,27,86,15.68,2.98,2019-08-14 00:20:43
605,1688696,San Policarpo,PH,125.51,12.18,36,69,28.88,3.73,2019-08-14 00:20:45
606,3141667,Roald,NO,6.12,62.58,100,81,10.43,3.1,2019-08-14 00:17:03
607,934517,Flic en Flac,MU,57.36,-20.27,75,78,22.0,6.7,2019-08-14 00:20:49
608,124193,Meybod,IR,54.02,32.25,20,31,25.0,4.1,2019-08-14 00:20:50
609,1799462,Shaoyang,CN,111.45,27.23,0,80,25.48,1.05,2019-08-14 00:20:51
610,3664716,Canutama,BR,-64.38,-6.53,16,40,26.38,0.68,2019-08-14 00:20:53
611,3991347,Puerto Penasco,MX,-113.53,31.32,0,44,33.38,2.81,2019-08-14 00:20:54
612,5828648,Jackson,US,-110.76,43.48,20,22,25.41,4.1,2019-08-14 00:20:56
613,1641899,Labuhan,ID,115.51,-2.54,0,75,25.48,0.65,2019-08-14 00:16:51
614,1503153,Klyuchi,RU,79.17,52.25,0,74,15.58,1.09,2019-08-14 00:21:00
615,296852,Erzin,TR,36.2,36.95,0,74,27.5,7.2,2019-08-14 00:21:01
616,3836669,San Rafael,AR,-68.33,-34.61,100,40,7.48,2.58,2019-08-14 00:18:19
617,2120048,Ust-Nera,RU,143.24,64.57,4,48,15.48,1.31,2019-08-14 00:21:04
618,4033557,Tautira,PF,-149.15,-17.73,20,66,29.0,6.7,2019-08-14 00:21:06
619,2022174,Khurba,RU,136.89,50.41,91,74,21.48,1.76,2019-08-14 00:21:08
620,1220826,Farkhor,TJ,69.4,37.49,20,40,22.01,2.63,2019-08-14 00:21:09
621,2126785,Belaya Gora,RU,146.19,68.54,22,49,16.68,3.8,2019-08-14 00:21:11
622,2137748,Voh,NC,164.69,-20.95,45,84,21.38,6.68,2019-08-14 00:21:12
623,553216,Kanash,RU,47.5,55.51,0,66,10.0,1.0,2019-08-14 00:21:13
624,2157698,Mildura,AU,142.16,-34.18,0,52,8.0,3.6,2019-08-14 00:21:15
625,3356264,Keetmanshoop,NA,18.15,-26.57,0,28,15.0,3.1,2019-08-14 00:21:16
626,3354898,Okahandja,NA,16.91,-21.98,0,18,17.0,3.1,2019-08-14 00:21:18
627,2347209,Bida,NG,6.02,9.08,46,88,23.38,1.66,2019-08-14 00:21:20
628,2028164,Deputatskiy,RU,139.9,69.3,0,40,13.58,2.81,2019-08-14 00:21:22
629,779622,Havoysund,NO,24.66,71.0,75,100,8.0,6.7,2019-08-14 00:21:23
630,2338242,Ikom,NG,8.72,5.96,36,97,22.28,1.79,2019-08-14 00:21:24
631,3397230,Jose de Freitas,BR,-42.58,-4.76,0,58,28.0,1.98,2019-08-14 00:21:26
632,112214,Varamin,IR,51.65,35.33,40,53,24.01,5.1,2019-08-14 00:21:27
633,2145554,Ulladulla,AU,150.48,-35.36,40,66,10.0,3.6,2019-08-14 00:21:29
634,110690,Faya,SA,42.45,18.39,20,72,18.51,1.0,2019-08-14 00:21:30
635,3601977,San Lorenzo,HN,-87.45,13.43,0,39,36.0,1.5,2019-08-14 00:21:32
636,2171845,Cessnock,AU,151.35,-32.83,20,50,11.0,4.6,2019-08-14 00:21:33
637,1643837,Gorontalo,ID,123.06,0.54,50,71,26.88,5.53,2019-08-14 00:21:35
638,1831167,Kampong Chhnang,KH,104.67,12.25,88,88,26.58,2.88,2019-08-14 00:21:36
639,962367,Richards Bay,ZA,32.06,-28.77,89,79,20.38,7.65,2019-08-14 00:21:38
640,3838233,Humaita,AR,-65.37,-24.93,90,65,10.85,1.0,2019-08-14 00:16:43
641,2186111,Ngunguru,NZ,174.5,-35.62,3,66,15.38,5.79,2019-08-14 00:21:40
642,3588476,Tecpan,GT,-90.99,14.76,40,38,25.0,6.2,2019-08-14 00:21:42
643,306571,Konya,TR,32.48,37.87,0,29,26.0,4.1,2019-08-14 00:21:43
644,1650600,Balaipungut,ID,101.31,1.11,100,96,23.78,1.1,2019-08-14 00:21:46
645,3108317,Tarancon,ES,-3.01,40.01,0,24,20.0,3.1,2019-08-14 00:21:47
646,3664321,Eirunepe,BR,-69.87,-6.66,20,47,28.28,1.0,2019-08-14 00:16:53
647,4034496,Fare,PF,-151.02,-16.7,99,71,25.68,3.35,2019-08-14 00:21:50
648,2038665,Alihe,CN,123.73,50.57,98,68,19.78,1.31,2019-08-14 00:21:52
649,5972291,Havre-Saint-Pierre,CA,-63.6,50.23,20,82,15.0,5.7,2019-08-14 00:21:54
650,2189343,Kaeo,NZ,173.78,-35.1,42,69,14.08,5.23,2019-08-14 00:21:55
651,4069458,Wagar,US,-87.99,31.44,86,66,32.08,1.85,2019-08-14 00:21:58
652,3440777,Rocha,UY,-54.34,-34.48,76,77,3.08,3.47,2019-08-14 00:20:27
653,3201047,Dubrovnik,HR,18.09,42.65,0,83,24.54,1.5,2019-08-14 00:17:33
654,1805733,Jinchang,CN,102.19,38.52,0,31,19.98,3.84,2019-08-14 00:22:02
655,1502422,Kosh-Agach,RU,88.66,49.99,0,65,10.08,0.52,2019-08-14 00:22:03
656,2894897,Jever,DE,7.9,53.57,40,93,11.0,2.6,2019-08-14 00:22:05
657,2160063,Codrington,AU,153.24,-28.95,75,93,13.72,3.6,2019-08-14 00:17:32
658,5990669,Kelvington,CA,-103.52,52.16,95,66,18.68,3.14,2019-08-14 00:22:10
659,1582886,Dong Hoi,VN,106.6,17.48,99,77,25.98,2.62,2019-08-14 00:22:11
660,3197986,Knin,HR,16.2,44.04,0,61,25.42,2.1,2019-08-14 00:22:13
661,1337605,Mahibadhoo,MV,72.97,3.78,100,72,28.58,3.52,2019-08-14 00:22:14
662,3854604,Alamos,AR,-62.36,-36.9,0,47,2.08,2.06,2019-08-14 00:22:15
663,4282757,Ashland,US,-82.64,38.48,1,78,27.71,1.5,2019-08-14 00:19:04
664,2956656,Vilshofen,DE,11.95,49.3,1,100,10.67,1.5,2019-08-14 00:22:19
665,2512186,Puerto del Rosario,ES,-13.86,28.5,2,73,22.0,6.7,2019-08-14 00:22:21
666,3421982,Maniitsoq,GL,-52.9,65.42,0,54,8.78,4.18,2019-08-14 00:22:22
667,184921,Mwingi,KE,38.07,-0.93,63,82,17.38,3.36,2019-08-14 00:22:23
668,6176928,Watrous,CA,-105.46,51.67,96,50,19.48,2.51,2019-08-14 00:22:25
669,2013921,Ust-Kuyga,RU,135.55,70.0,0,48,18.88,1.38,2019-08-14 00:22:26
670,1163054,Turbat,PK,63.05,26.0,38,67,28.88,3.52,2019-08-14 00:22:27
671,2448085,Agadez,NE,7.99,16.97,1,58,30.0,1.5,2019-08-14 00:22:29
672,3170692,Pineto,IT,14.07,42.61,44,78,25.0,2.1,2019-08-14 00:22:30
673,127319,Khorramshahr,IR,48.18,30.43,15,79,30.45,1.0,2019-08-14 00:22:32
674,1652203,Xam Nua,LA,104.04,20.42,100,90,20.98,1.09,2019-08-14 00:22:33
675,1214488,Meulaboh,ID,96.13,4.14,100,80,26.78,4.67,2019-08-14 00:22:36
676,1693812,Pili,PH,123.27,13.56,73,78,28.78,8.11,2019-08-14 00:22:37
677,3445912,Turmalina,BR,-42.73,-17.29,0,73,16.18,1.54,2019-08-14 00:22:38
678,1493004,Sargatskoye,RU,73.49,55.6,50,72,12.18,5.01,2019-08-14 00:22:40
679,3395981,Maceio,BR,-35.74,-9.67,0,83,23.0,3.1,2019-08-14 00:17:43
680,1276652,Bayana,IN,77.29,26.91,100,77,28.08,1.66,2019-08-14 00:22:43
681,2084442,Vanimo,PG,141.3,-2.67,33,69,28.28,2.29,2019-08-14 00:22:44
682,3433658,Gualeguaychu,AR,-58.51,-33.01,0,69,3.48,2.28,2019-08-14 00:22:45
683,2013258,Vrangel,RU,133.08,42.73,91,86,20.38,1.6,2019-08-14 00:22:47
684,1059507,Marovoay,MG,46.64,-16.11,20,68,21.0,2.1,2019-08-14 00:22:48
685,4696310,Harper,US,-99.24,30.3,1,28,37.4,3.1,2019-08-14 00:22:49
686,4344599,Vidalia,US,-91.43,31.57,1,59,34.0,2.1,2019-08-14 00:22:52
687,648901,Lappeenranta,FI,28.19,61.06,5,100,13.0,2.1,2019-08-14 00:22:54
688,3887127,Iquique,CL,-70.14,-20.22,90,77,15.0,4.1,2019-08-14 00:21:02
689,2383119,Sibut,CF,19.09,5.73,90,94,21.38,0.98,2019-08-14 00:22:56
690,2015545,Tarbagatay,RU,107.36,51.48,90,93,10.0,2.0,2019-08-14 00:22:58
691,1079088,Ambositra,MG,47.24,-20.53,69,96,9.58,1.9,2019-08-14 00:22:59
692,2377450,Nouakchott,MR,-15.98,18.08,40,83,25.0,6.2,2019-08-14 00:23:00
693,4012593,Creel,MX,-107.63,27.75,72,78,17.48,2.42,2019-08-14 00:23:02
694,4625282,Goodlettsville,US,-86.71,36.32,1,78,24.57,2.92,2019-08-14 00:23:03
695,2034657,Suifenhe,CN,131.16,44.39,100,97,19.08,2.01,2019-08-14 00:23:05
696,1812956,Mali,CN,102.2,27.53,98,92,16.18,2.07,2019-08-14 00:23:06
697,344420,Adwa,ET,38.9,14.16,100,96,15.38,1.19,2019-08-14 00:23:09
698,3837213,San Juan,AR,-68.53,-31.54,94,46,2.78,1.39,2019-08-14 00:23:00
699,187896,Mandera,ET,41.86,3.94,97,60,24.18,7.3,2019-08-14 00:23:11
700,7626370,Bud,NO,6.91,62.91,100,93,10.0,1.5,2019-08-14 00:23:13
701,4034188,Moerai,PF,-151.33,-22.43,64,86,23.58,4.16,2019-08-14 00:23:14
702,1238427,Kuliyapitiya,LK,80.04,7.47,40,83,27.0,2.1,2019-08-14 00:23:15
703,3931470,Puerto Maldonado,PE,-69.19,-12.59,75,334,1.0,4.6,2019-08-14 00:23:17
704,2611755,Thisted,DK,8.68,56.96,88,78,12.78,5.04,2019-08-14 00:23:18
705,3386177,Trairi,BR,-39.27,-3.28,14,86,22.38,2.11,2019-08-14 00:23:19
706,218680,Boende,CD,20.88,-0.28,4,85,23.18,0.64,2019-08-14 00:23:21
707,5972762,Hay River,CA,-115.79,60.82,75,43,21.0,6.2,2019-08-14 00:23:22
708,591260,Kohtla-Jarve,EE,27.27,59.4,10,82,15.08,4.96,2019-08-14 00:23:24
709,151211,Sola,TZ,33.8,-3.17,0,39,17.58,4.34,2019-08-14 00:23:25
710,152042,Naberera,TZ,36.93,-4.2,0,89,13.08,3.75,2019-08-14 00:23:26
711,1821935,Ta Khmau,KH,104.95,11.48,40,78,28.0,3.1,2019-08-14 00:23:28
712,3381303,Kourou,GF,-52.64,5.16,0,94,24.0,1.09,2019-08-14 00:23:29
713,3460355,Jaciara,BR,-54.98,-15.95,69,37,26.88,2.37,2019-08-14 00:23:31
714,1511646,Andra,RU,65.89,62.52,57,95,10.98,1.4,2019-08-14 00:23:32
715,2094027,Kieta,PG,155.63,-6.22,46,75,28.58,5.32,2019-08-14 00:23:34
716,4671654,Austin,US,-97.74,30.27,1,34,37.35,1.5,2019-08-14 00:23:09
717,1699524,Minuri,PH,121.86,16.54,85,77,26.68,0.44,2019-08-14 00:23:36
718,3451234,Rio Claro,BR,-47.56,-22.41,0,82,17.0,6.7,2019-08-14 00:21:35
719,2246901,Oussouye,SN,-16.54,12.49,40,83,27.49,4.1,2019-08-14 00:23:39
720,3931223,Puquio,PE,-74.12,-14.69,9,50,9.68,1.47,2019-08-14 00:23:40
721,217834,Bukama,CD,25.85,-9.2,0,27,19.08,0.41,2019-08-14 00:23:42
722,1270779,Guhagar,IN,73.19,17.48,100,83,27.18,4.47,2019-08-14 00:23:44
723,2025256,Chumikan,RU,135.31,54.72,100,92,12.88,1.56,2019-08-14 00:23:46
724,2460954,Araouane,ML,-3.53,18.9,0,24,37.28,8.68,2019-08-14 00:23:47
725,1625929,Sungaipenuh,ID,101.38,-2.08,100,90,22.88,1.08,2019-08-14 00:23:49
726,3172402,Nago,IT,10.89,45.88,84,73,23.71,2.6,2019-08-14 00:23:50
727,2065594,Mount Isa,AU,139.49,-20.73,2,20,20.0,3.6,2019-08-14 00:23:51
728,4597948,Sumter,US,-80.34,33.92,1,94,29.34,2.28,2019-08-14 00:22:02
729,2544571,Kenitra,MA,-6.57,34.26,0,88,20.0,1.5,2019-08-14 00:23:54
730,3080538,Zawadzkie,PL,18.48,50.61,40,87,16.0,1.5,2019-08-14 00:23:55
731,909299,Lundazi,ZM,33.17,-12.29,0,57,13.78,2.9,2019-08-14 00:23:57
732,2121025,Srednekolymsk,RU,153.71,67.46,100,71,7.98,4.65,2019-08-14 00:23:58
733,2460489,Bandiagara,ML,-3.61,14.35,0,79,30.0,5.1,2019-08-14 00:24:00
734,4011743,Reforma,MX,-104.65,24.02,40,38,29.0,3.6,2019-08-14 00:24:01
735,3693345,Pucallpa,PE,-74.54,-8.38,75,74,27.0,2.6,2019-08-14 00:24:02
736,3655185,Nueva Loja,EC,-76.88,0.08,90,78,24.51,4.1,2019-08-14 00:24:04
737,3355624,Maltahohe,NA,16.98,-24.83,0,42,6.08,2.53,2019-08-14 00:24:05
738,3428576,San Pedro,AR,-59.66,-33.68,0,62,2.98,0.7,2019-08-14 00:24:06
739,1151464,Phangnga,TH,98.53,8.45,40,74,25.9,3.1,2019-08-14 00:24:08
740,4000900,La Paz,MX,-110.32,24.15,20,25,36.0,5.1,2019-08-14 00:24:11
741,3665098,Barcelos,BR,-62.93,-0.97,11,67,26.28,0.79,2019-08-14 00:24:12
742,2658145,Vevey,CH,6.84,46.46,20,87,11.45,1.0,2019-08-14 00:24:13
743,1283285,Jumla,NP,82.18,29.28,99,96,11.48,0.91,2019-08-14 00:24:15
744,2541479,Nador,MA,-2.93,35.17,40,88,24.49,2.6,2019-08-14 00:24:16
745,3406545,Balsas,BR,-46.04,-7.53,0,36,25.58,1.13,2019-08-14 00:23:09
746,2377457,Nouadhibou,MR,-17.03,20.93,0,73,22.0,9.8,2019-08-14 00:24:19
747,2253354,Dakar,SN,-17.45,14.69,75,83,26.0,6.2,2019-08-14 00:24:20
748,618453,Kamenka,MD,28.7,48.03,0,56,21.38,1.91,2019-08-14 00:24:21
749,5938801,Devon,CA,-113.73,53.36,40,60,19.65,2.6,2019-08-14 00:24:23
750,488852,Starodub,RU,32.76,52.58,42,97,18.18,3.25,2019-08-14 00:24:24
751,1735634,Kuching,MY,110.34,1.56,75,94,25.0,1.0,2019-08-14 00:24:27
752,3437443,Pozo Colorado,PY,-58.8,-23.49,0,43,12.68,3.65,2019-08-14 00:24:28
753,473903,Vetluzhskiy,RU,45.47,58.39,100,67,10.68,1.89,2019-08-14 00:24:30
754,2128975,Nemuro,JP,145.57,43.32,75,77,16.0,1.5,2019-08-14 00:24:31
755,1178338,Gilgit,PK,74.31,35.92,99,66,12.98,2.66,2019-08-14 00:24:33
756,2214827,Mizdah,LY,12.98,31.45,0,50,22.58,1.92,2019-08-14 00:24:34
757,547871,Kizema,RU,44.83,61.11,100,86,8.68,2.36,2019-08-14 00:24:36
758,1812101,Dongying,CN,118.67,37.43,98,79,23.98,3.18,2019-08-14 00:24:37
759,6096551,Pangnirtung,CA,-65.72,66.15,0,48,9.58,1.51,2019-08-14 00:24:38
760,2171722,Charters Towers,AU,146.27,-20.07,0,48,18.88,6.21,2019-08-14 00:21:30
761,4580543,Greenville,US,-82.4,34.85,1,70,29.38,2.6,2019-08-14 00:20:27
762,3577154,Oranjestad,AW,-70.03,12.52,20,74,29.0,10.3,2019-08-14 00:21:35
763,1488048,Ulagan,RU,87.96,50.63,17,56,10.78,1.57,2019-08-14 00:24:44
764,3868707,Valdivia,CL,-73.25,-39.81,37,100,3.0,4.59,2019-08-14 00:24:46
765,496561,Sernur,RU,49.15,56.93,99,91,8.28,1.51,2019-08-14 00:24:48
766,4258273,Greencastle,US,-86.86,39.64,1,69,26.55,3.26,2019-08-14 00:24:49
767,1024552,Xai-Xai,MZ,33.64,-25.04,0,97,17.98,1.3,2019-08-14 00:24:51
768,921786,Mitsamiouli,KM,43.28,-11.38,0,70,24.68,4.16,2019-08-14 00:24:52
769,3671387,Puerto Narino,CO,-70.38,-3.77,0,88,27.0,1.0,2019-08-14 00:24:53
770,3377408,Linden,GY,-58.31,6.01,75,94,24.0,2.1,2019-08-14 00:24:56
771,1269843,Hyderabad,IN,78.47,17.36,75,94,24.0,3.6,2019-08-14 00:24:57
772,2409215,Mattru,SL,-11.83,7.62,73,95,23.58,1.25,2019-08-14 00:24:59
773,5606187,Saint Anthony,US,-111.68,43.97,1,16,27.65,4.1,2019-08-14 00:25:00
774,7176038,Jerome,US,-112.11,34.75,1,8,31.14,1.5,2019-08-14 00:25:02
775,70979,Sayyan,YE,44.32,15.17,81,58,23.78,0.56,2019-08-14 00:25:03
776,1489209,Troitskoye,RU,84.68,52.98,0,71,13.78,2.78,2019-08-14 00:25:04
777,3936088,Lluta,PE,-72.01,-16.02,0,13,16.0,1.0,2019-08-14 00:25:06
778,863061,Usinsk,RU,57.56,66.0,100,98,9.18,3.22,2019-08-14 00:25:07
779,1787599,Xingyi,CN,102.82,24.19,32,89,17.38,0.29,2019-08-14 00:25:08
780,692844,Starychi,UA,23.55,49.97,75,93,17.0,5.0,2019-08-14 00:25:10
781,1650213,Banjarmasin,ID,114.59,-3.32,13,82,25.88,1.02,2019-08-14 00:25:11
782,2012956,Yerbogachen,RU,108.01,61.28,96,73,13.08,3.48,2019-08-14 00:25:13
783,3369174,Calvinia,ZA,19.78,-31.47,0,83,5.38,0.51,2019-08-14 00:25:14
784,1717787,Catuday,PH,119.81,16.29,100,81,28.98,9.4,2019-08-14 00:25:16
785,5720495,Coos Bay,US,-124.22,43.37,40,83,20.44,5.7,2019-08-14 00:25:17
786,1793036,Tengzhou,CN,117.16,35.11,24,89,23.28,3.34,2019-08-14 00:25:18
787,3170069,Porto Torres,IT,8.4,40.84,0,88,18.0,1.0,2019-08-14 00:25:20
788,2986160,Pontivy,FR,-2.97,48.06,0,87,14.99,1.0,2019-08-14 00:25:21
789,5392952,Santa Barbara,US,-119.7,34.42,75,88,22.23,5.1,2019-08-14 00:21:05
790,1495586,Parabel,RU,81.5,58.71,17,75,10.38,3.63,2019-08-14 00:25:24
791,2449893,Tessalit,ML,1.01,20.2,87,24,36.18,11.21,2019-08-14 00:25:25
792,2016307,Solnechnyy,RU,136.64,50.72,99,65,22.08,1.65,2019-08-14 00:25:27
793,3520994,Puerto Escondido,MX,-97.07,15.86,40,74,30.0,3.1,2019-08-14 00:25:31
794,2035410,Qianan,CN,124.06,44.99,100,89,21.98,4.4,2019-08-14 00:25:32
795,2136697,Lakatoro,VU,167.42,-16.11,17,74,27.18,3.01,2019-08-14 00:25:35
796,3220813,Wanning,AT,13.53,48.64,75,93,14.0,3.1,2019-08-14 00:25:36
797,1253628,Dunda,IN,78.32,30.62,90,94,25.0,2.1,2019-08-14 00:25:37
798,2067070,Palmer,AU,139.16,-34.85,0,50,12.0,5.7,2019-08-14 00:25:39
799,5785243,Aberdeen,US,-123.82,46.98,75,32,26.11,4.02,2019-08-14 00:22:27
800,3450554,Salvador,BR,-38.48,-12.98,75,83,24.0,2.6,2019-08-14 00:22:01
801,1572151,Nha Trang,VN,109.19,12.24,0,62,32.0,2.6,2019-08-14 00:25:43
802,1668295,Taitung,TW,121.15,22.76,75,66,31.0,1.5,2019-08-14 00:25:44
803,5789856,Cheney,US,-117.58,47.49,1,29,27.2,3.1,2019-08-14 00:21:39
804,5856516,Ahuimanu,US,-157.84,21.44,90,70,30.77,5.1,2019-08-14 00:25:48
805,2294915,Takoradi,GH,-1.75,4.89,95,89,23.28,2.71,2019-08-14 00:25:50
806,2019945,Mishelevka,RU,103.17,52.86,100,81,12.18,1.67,2019-08-14 00:25:51
807,3461576,Ibirama,BR,-49.52,-27.05,0,68,8.38,1.49,2019-08-14 00:25:52
808,2961459,Skibbereen,IE,-9.27,51.55,90,100,15.0,7.7,2019-08-14 00:25:54
809,2520058,Cartagena,ES,-1.0,37.63,20,78,24.0,1.5,2019-08-14 00:25:55
810,3454632,Peabiru,BR,-52.35,-23.91,0,42,19.0,4.6,2019-08-14 00:25:56
811,908913,Luwingu,ZM,29.92,-10.26,0,46,10.88,2.74,2019-08-14 00:25:58
812,1512019,Aksarka,RU,67.8,66.56,100,83,6.38,3.41,2019-08-14 00:25:59
813,2450173,Taoudenni,ML,-3.98,22.68,0,7,37.08,4.92,2019-08-14 00:26:02
814,6144312,Sept-Iles,CA,-66.38,50.2,20,87,14.0,2.1,2019-08-14 00:26:03
815,2156927,Moree,AU,149.84,-29.46,0,39,17.0,4.1,2019-08-14 00:26:05
816,690571,Utkivka,UA,36.02,49.79,0,56,22.0,3.0,2019-08-14 00:26:06
817,2154386,Olinda,AU,145.39,-37.84,90,87,11.0,2.6,2019-08-14 00:26:08
818,1630789,Pontianak,ID,109.34,-0.02,84,84,26.98,4.11,2019-08-14 00:26:09
819,4501018,Camden,US,-75.12,39.94,75,88,23.28,1.68,2019-08-14 00:26:10
820,3663529,Manacapuru,BR,-60.62,-3.3,0,74,27.0,0.66,2019-08-14 00:26:12
821,1505991,Igarka,RU,86.57,67.47,39,83,8.08,4.69,2019-08-14 00:26:13
822,5681948,Fallon,US,-105.12,46.84,75,52,20.0,3.6,2019-08-14 00:26:16
823,3887344,Illapel,CL,-71.17,-31.63,95,30,16.98,0.68,2019-08-14 00:26:17
824,1142226,Dawlatabad,AF,64.91,36.41,0,32,18.78,3.97,2019-08-14 00:26:18
825,113659,Tabas,IR,56.92,33.6,0,26,28.0,4.1,2019-08-14 00:26:20
826,5287565,Bullhead City,US,-114.57,35.15,5,6,41.7,1.5,2019-08-14 00:26:21
827,2518878,Denia,ES,0.11,38.84,0,70,24.58,3.09,2019-08-14 00:26:23
828,2129072,Kushiro,JP,144.15,43.11,75,87,15.0,1.0,2019-08-14 00:26:24
829,2031964,Darhan,MN,105.92,49.49,32,75,11.08,0.24,2019-08-14 00:26:25
830,2015701,Taksimo,RU,114.84,56.36,13,67,10.78,1.07,2019-08-14 00:26:27
831,3700393,Tubuala,PA,-79.03,9.52,75,94,27.0,2.6,2019-08-14 00:26:28
832,656083,Jamsa,FI,25.19,61.86,0,87,10.76,1.5,2019-08-14 00:26:30
833,3408424,Ipixuna,BR,-48.8,-1.76,40,83,27.0,4.1,2019-08-14 00:26:31
834,1626711,Cikupa,ID,108.11,-7.65,75,91,20.38,1.03,2019-08-14 00:26:32
835,3653967,Muisne,EC,-80.02,0.61,0,78,28.0,2.1,2019-08-14 00:26:34
836,122438,Hashtgerd,IR,50.69,35.96,0,68,20.19,2.1,2019-08-14 00:26:37
837,2634739,Warrington,GB,-2.59,53.39,20,82,13.36,2.6,2019-08-14 00:26:38
838,3664659,Carauari,BR,-66.9,-4.88,0,45,25.88,0.85,2019-08-14 00:26:41
839,945945,Upington,ZA,21.24,-28.46,0,33,8.0,1.5,2019-08-14 00:26:42
840,3646767,Caraballeda,VE,-66.85,10.61,75,69,27.0,1.0,2019-08-14 00:26:43
841,1173464,Kohlu,PK,69.25,29.9,0,57,27.18,1.28,2019-08-14 00:26:45
842,1519395,Serebryansk,KZ,83.3,49.68,80,44,18.38,2.62,2019-08-14 00:26:46
843,3354071,Oranjemund,ZA,16.43,-28.55,0,81,13.38,9.4,2019-08-14 00:26:48
844,184570,Namanga,KE,36.79,-2.55,13,84,13.38,3.31,2019-08-14 00:26:49
845,5572400,Susanville,US,-120.65,40.42,1,16,33.0,4.6,2019-08-14 00:26:50
846,89113,Ajdabiya,LY,20.22,30.75,0,84,25.78,3.1,2019-08-14 00:26:52
847,2023584,Imeni Poliny Osipenko,RU,136.49,52.42,100,93,17.98,1.87,2019-08-14 00:26:53
848,484644,Tambovka,RU,47.38,47.32,53,45,15.98,3.27,2019-08-14 00:26:54
849,4004293,Ixtapa,MX,-105.21,20.71,75,76,31.0,6.2,2019-08-14 00:26:56
850,3867427,Mayor Pablo Lagerenza,PY,-60.77,-19.93,67,23,18.38,5.75,2019-08-14 00:26:57
851,6539309,Sinnai,IT,9.2,39.3,0,73,22.88,2.6,2019-08-14 00:26:59
852,2181988,Takapau,NZ,176.35,-40.02,95,90,6.28,3.43,2019-08-14 00:27:00
853,2017378,Rudnogorsk,RU,103.75,57.27,43,76,11.58,0.9,2019-08-14 00:27:02
854,2406407,Makeni,SL,-12.05,8.88,97,98,23.18,2.02,2019-08-14 00:27:04
855,3438102,Fuerte Olimpo,BR,-57.87,-21.04,73,29,17.48,4.97,2019-08-14 00:27:06
856,3571592,Rock Sound,BS,-76.2,24.9,100,71,29.38,4.33,2019-08-14 00:27:07
857,3835994,Santa Rosa,AR,-64.29,-36.62,27,40,3.18,4.01,2019-08-14 00:27:08
858,1799629,Nanyang,CN,112.53,33.0,0,80,26.08,2.08,2019-08-14 00:27:10
859,1267433,Kattivakkam,IN,80.32,13.22,75,88,28.0,2.6,2019-08-14 00:27:12
860,6149996,Smithers,CA,-127.17,54.78,40,44,24.0,3.1,2019-08-14 00:27:14
861,144448,Ahvaz,IR,48.68,31.32,0,52,32.0,2.1,2019-08-14 00:27:15
862,3668605,Santa Marta,CO,-74.21,11.24,75,62,32.0,5.1,2019-08-14 00:23:14
863,6111696,Port-Cartier,CA,-66.88,50.03,20,87,14.0,2.1,2019-08-14 00:27:18
864,234081,Bushenyi,UG,30.19,-0.54,81,83,18.88,0.35,2019-08-14 00:27:19
865,1504382,Kargasok,RU,80.87,59.06,14,74,9.88,2.03,2019-08-14 00:27:21
866,3404558,Cabedelo,BR,-34.84,-6.97,75,100,22.0,2.6,2019-08-14 00:22:45
867,1847947,Shingu,JP,135.99,33.72,75,83,28.0,7.2,2019-08-14 00:27:23
868,2391895,Savalou,BJ,1.98,7.93,13,97,22.18,2.16,2019-08-14 00:27:25
869,2446796,Bilma,NE,12.92,18.69,26,24,34.08,7.04,2019-08-14 00:27:26
870,2037334,Fuyu,CN,124.46,47.79,100,74,21.68,3.06,2019-08-14 00:27:28
871,2146268,Toowoomba,AU,151.95,-27.56,0,59,17.0,2.6,2019-08-14 00:27:29
872,5500539,Boulder City,US,-114.83,35.98,1,7,39.6,3.6,2019-08-14 00:27:30
873,2335713,Matagami,NG,8.4,9.67,10,93,20.08,0.44,2019-08-14 00:27:32
874,2396853,Omboue,GA,9.26,-1.57,55,89,23.08,6.52,2019-08-14 00:27:35
875,1169605,Muzaffargarh,PK,71.19,30.08,0,79,29.0,5.1,2019-08-14 00:27:38
876,2457163,Gao,ML,-0.04,16.28,55,46,32.28,9.26,2019-08-14 00:27:40
877,2140558,Koumac,NC,164.28,-20.56,82,84,21.88,4.82,2019-08-14 00:27:41
878,3685702,Cravo Norte,CO,-70.2,6.3,100,94,23.78,1.82,2019-08-14 00:27:43
879,1495812,Ous,RU,61.52,60.91,99,92,11.58,2.99,2019-08-14 00:27:44
880,3405051,Borba,BR,-59.59,-4.39,46,44,26.68,0.62,2019-08-14 00:27:45
881,6145425,Shaunavon,CA,-108.41,49.65,83,53,20.08,2.84,2019-08-14 00:27:47
882,230725,Koboko,UG,30.96,3.41,31,92,16.88,1.11,2019-08-14 00:27:48
883,3115824,Muros,ES,-9.06,42.77,0,93,14.06,1.34,2019-08-14 00:27:50
884,3454005,Piacabucu,BR,-36.43,-10.41,8,87,23.08,3.59,2019-08-14 00:27:52
885,3389609,Pimentel,BR,-45.5,-3.7,58,69,25.68,1.18,2019-08-14 00:27:55
886,204318,Wamba,CD,27.99,2.14,100,96,19.88,0.89,2019-08-14 00:27:56
887,1651103,Atambua,ID,124.89,-9.11,0,69,24.08,4.87,2019-08-14 00:27:58
888,153220,Morogoro,TZ,37.67,-6.82,20,93,18.0,1.02,2019-08-14 00:27:59
889,2654970,Brae,GB,-1.35,60.4,0,93,10.7,3.6,2019-08-14 00:28:03
890,3691582,Talara,PE,-81.27,-4.58,0,89,16.98,4.86,2019-08-14 00:25:34
891,3137469,Sorland,NO,12.69,67.67,21,92,11.38,9.21,2019-08-14 00:28:07
892,6255012,Flinders,AU,150.85,-34.58,20,54,13.0,3.6,2019-08-14 00:28:08
893,1636426,Manggar,ID,108.27,-2.88,14,85,25.48,2.33,2019-08-14 00:28:10
894,1633034,Palu,ID,119.87,-0.9,0,71,26.58,0.08,2019-08-14 00:26:01
895,1797543,Tianpeng,CN,112.34,28.88,0,80,27.78,1.5,2019-08-14 00:28:12
896,2184707,Wanaka,NZ,169.14,-44.7,8,67,1.08,2.53,2019-08-14 00:28:14
897,949683,Thabazimbi,ZA,27.41,-24.59,0,67,11.98,1.75,2019-08-14 00:28:15
898,5059429,Grand Forks,US,-97.06,47.91,90,68,18.8,3.6,2019-08-14 00:28:17
899,1806535,Huzhou,CN,120.1,30.86,0,72,28.38,2.11,2019-08-14 00:28:18
900,5826027,Gillette,US,-105.5,44.29,1,41,24.0,4.6,2019-08-14 00:23:41
901,3833859,Tres Arroyos,AR,-60.28,-38.38,38,90,1.48,1.78,2019-08-14 00:28:23
902,792421,Bosilegrad,RS,22.47,42.5,0,38,19.48,1.9,2019-08-14 00:28:25
903,715001,Tallya,HU,21.23,48.23,75,93,17.0,7.2,2019-08-14 00:28:26
904,286245,Sur,OM,59.53,22.57,65,65,27.68,2.11,2019-08-14 00:28:27
905,5855051,Ewa Beach,US,-158.01,21.32,1,62,30.75,5.7,2019-08-14 00:28:29
906,4456703,Boone,US,-81.67,36.22,1,78,24.46,2.25,2019-08-14 00:28:30
907,1528606,Kemin,KG,75.7,42.79,9,45,12.68,2.38,2019-08-14 00:28:31
908,2026023,Bukachacha,RU,116.91,52.99,96,53,15.88,0.55,2019-08-14 00:28:33
909,602150,Umea,SE,20.26,63.83,75,100,15.0,1.5,2019-08-14 00:28:34
910,3897774,Buin,CL,-70.74,-33.73,0,25,17.0,1.5,2019-08-14 00:28:36
911,1718214,Casambalangan,PH,122.13,18.38,54,76,28.98,6.51,2019-08-14 00:28:38
912,3146487,Raudeberg,NO,5.14,61.99,100,87,10.0,2.8,2019-08-14 00:28:40
913,1486910,Komsomolskiy,RU,63.78,67.55,100,73,6.98,3.77,2019-08-14 00:28:44
914,1280957,Jiuquan,CN,98.49,39.73,0,13,22.78,1.79,2019-08-14 00:28:46
915,5166009,Painesville,US,-81.25,41.72,90,94,23.14,8.51,2019-08-14 00:28:48
916,3351663,Benguela,AO,13.4,-12.58,71,88,20.58,1.92,2019-08-14 00:28:49
917,533975,Lotoshino,RU,35.64,56.23,99,96,15.38,3.96,2019-08-14 00:28:52
918,1185148,Patiya,BD,91.98,22.3,90,94,27.0,3.1,2019-08-14 00:28:53
919,4714131,New Braunfels,US,-98.13,29.7,1,31,38.01,7.2,2019-08-14 00:28:54
920,1168312,Pasni,PK,63.48,25.26,6,73,28.28,1.96,2019-08-14 00:28:57
921,2389804,Baoro,CF,15.95,5.69,30,95,18.88,0.91,2019-08-14 00:28:59
922,3407882,Altamira,BR,-52.21,-3.2,48,52,28.58,0.49,2019-08-14 00:25:50
923,1259019,Rahuri,IN,74.65,19.39,100,85,23.78,2.04,2019-08-14 00:29:01
924,5836665,Riverton,US,-108.38,43.02,1,18,24.44,3.22,2019-08-14 00:29:03
925,778707,Mehamn,NO,27.85,71.03,97,93,5.78,4.03,2019-08-14 00:29:04
926,1861416,Ishigaki,JP,124.16,24.34,20,84,30.0,5.7,2019-08-14 00:29:05
927,2487130,Sidi Ali,DZ,0.42,36.1,0,87,24.68,7.99,2019-08-14 00:27:06
928,2324433,Bugama,NG,6.86,4.73,5,88,24.38,3.15,2019-08-14 00:29:08
929,2139521,Noumea,NC,166.46,-22.28,90,60,23.0,1.5,2019-08-14 00:29:10
930,128477,Kashan,IR,51.44,33.99,100,44,25.0,1.25,2019-08-14 00:29:11
931,2255542,Owando,CG,15.91,-0.49,22,89,22.68,1.37,2019-08-14 00:29:12
932,3460954,Praia,BR,-43.81,-20.25,0,52,21.0,1.5,2019-08-14 00:29:14
933,1523741,Esik,KZ,77.47,43.36,90,52,21.0,3.0,2019-08-14 00:29:15
934,2174444,Bowen,AU,148.25,-20.01,40,56,23.0,5.7,2019-08-14 00:29:16
935,3123688,Ejea de los Caballeros,ES,-1.14,42.13,65,67,16.0,2.6,2019-08-14 00:29:20
936,1795632,Shenjiamen,CN,122.3,29.96,0,72,28.08,2.64,2019-08-14 00:29:22
937,2015686,Talakan,RU,130.28,50.29,91,78,20.18,4.21,2019-08-14 00:29:23
938,3359638,Walvis Bay,NA,14.51,-22.95,0,87,15.0,2.6,2019-08-14 00:29:25
939,3856548,La Asuncion,AR,-65.39,-26.05,62,66,1.88,1.77,2019-08-14 00:29:26
940,4790207,Tuckahoe,US,-77.56,37.59,1,88,26.5,1.5,2019-08-14 00:28:29
941,3683538,Concepcion,CO,-73.66,9.56,73,75,28.08,2.19,2019-08-14 00:29:29
942,1784131,Huilong,CN,106.5,31.15,90,74,27.38,0.51,2019-08-14 00:29:30
943,2035565,Nongan,CN,125.17,44.43,90,94,21.0,2.0,2019-08-14 00:29:31
944,4440559,Pearl,US,-90.13,32.27,61,70,29.98,2.6,2019-08-14 00:29:33
945,2037078,Hailar,CN,119.7,49.2,0,58,17.38,3.1,2019-08-14 00:29:34
946,1899102,Nagato,JP,131.14,34.35,20,52,31.24,5.7,2019-08-14 00:29:35
947,1715015,Dicabisagan,PH,122.42,17.08,100,80,27.28,0.68,2019-08-14 00:29:37
948,2455290,Kidal,ML,1.41,18.44,37,29,34.98,3.55,2019-08-14 00:29:38
949,5954718,Flin Flon,CA,-101.88,54.77,90,56,20.0,6.2,2019-08-14 00:29:40
950,292953,Manama,AE,56.02,25.33,54,63,33.78,3.1,2019-08-14 00:29:41
951,2322907,Mana,NG,5.27,13.03,10,74,26.78,5.86,2019-08-14 00:29:42
952,705198,Kompaniyivka,UA,32.21,48.25,0,60,20.98,3.11,2019-08-14 00:29:44
953,2063042,Port Hedland,AU,118.58,-20.31,90,60,20.0,2.63,2019-08-14 00:29:45
954,145034,Abhar,IR,49.22,36.14,51,73,14.98,2.0,2019-08-14 00:29:47
955,3002585,Le Pont-de-Claix,FR,5.7,45.12,90,67,13.47,1.56,2019-08-14 00:29:48
956,491422,Sochi,RU,39.73,43.6,20,77,21.0,5.0,2019-08-14 00:29:10
957,964406,Port Shepstone,ZA,30.45,-30.74,0,83,12.48,1.97,2019-08-14 00:29:51
958,2980080,Saint-Francois,FR,3.91,46.42,0,87,10.0,1.0,2019-08-14 00:29:52
959,1152953,Khanu Woralaksaburi,TH,99.86,16.06,100,89,25.18,0.77,2019-08-14 00:29:53
960,2136825,Isangel,VU,169.27,-19.55,90,74,26.0,3.1,2019-08-14 00:29:55
961,4297983,Lexington,US,-84.5,38.05,75,74,27.84,3.1,2019-08-14 00:28:03
962,2162683,Innisfail,AU,146.03,-17.52,97,72,20.78,3.8,2019-08-14 00:29:57
963,1122464,Taywarah,AF,64.42,33.35,0,43,13.48,3.83,2019-08-14 00:29:59
964,3141332,Roros,NO,11.38,62.57,100,100,5.0,2.1,2019-08-14 00:30:00
965,5062292,Valley City,US,-98.0,46.92,90,100,16.0,4.1,2019-08-14 00:30:03
966,2167799,Eden,AU,149.9,-37.06,6,58,15.0,0.54,2019-08-14 00:30:04
967,4927537,Valparaiso,US,-87.06,41.47,1,78,25.25,1.5,2019-08-14 00:25:46
968,4224413,Statesboro,US,-81.78,32.45,1,49,32.12,2.6,2019-08-14 00:30:09
969,1259813,Phalodi,IN,72.36,27.13,51,62,30.08,6.05,2019-08-14 00:30:10
970,2013942,Ust-Karsk,RU,118.82,52.71,40,53,17.28,0.92,2019-08-14 00:30:12
971,1621313,Ambulu,ID,113.61,-8.35,0,85,23.18,1.22,2019-08-14 00:30:13
972,517739,Novouzensk,RU,48.14,50.46,6,71,11.58,3.31,2019-08-14 00:30:15
973,3450288,Santa Cruz Cabralia,BR,-39.02,-16.28,40,78,24.0,3.6,2019-08-14 00:30:16
974,615460,Pitsunda,GE,40.34,43.16,20,77,21.0,5.0,2019-08-14 00:30:18
975,5952554,Sturgeon Falls,CA,-79.93,46.36,75,55,18.0,4.1,2019-08-14 00:30:19
976,1255816,Sompeta,IN,84.6,18.93,100,82,24.48,1.95,2019-08-14 00:30:21
977,3156980,Floro,NO,5.03,61.6,100,87,10.0,2.8,2019-08-14 00:30:22
978,2063039,Port Keats,AU,129.55,-14.25,67,22,21.08,6.99,2019-08-14 00:30:23
979,2264923,Peniche,PT,-9.38,39.36,0,72,16.31,4.6,2019-08-14 00:30:25
980,3181528,Brindisi,IT,17.94,40.63,0,65,24.57,3.1,2019-08-14 00:30:28
981,4776222,Norfolk,US,-76.29,36.85,40,78,27.06,2.6,2019-08-14 00:29:06
982,145531,Saurimo,AO,20.4,-9.66,11,36,19.98,1.72,2019-08-14 00:30:30
983,4407010,Saint Joseph,US,-94.85,39.77,1,54,28.66,2.1,2019-08-14 00:30:32
984,2035836,Manzhouli,CN,117.43,49.6,42,57,17.18,2.27,2019-08-14 00:30:33
985,347796,Sohag,EG,31.7,26.55,0,21,28.0,2.6,2019-08-14 00:30:34
986,3461425,Ilhabela,BR,-45.36,-23.78,100,77,19.38,6.0,2019-08-14 00:30:36
987,6113406,Prince Rupert,CA,-130.32,54.32,1,72,19.0,3.1,2019-08-14 00:30:38
988,286987,Nizwa,OM,57.53,22.93,58,48,28.18,0.17,2019-08-14 00:30:40
989,1707233,Larap,PH,122.65,14.3,98,75,28.98,7.57,2019-08-14 00:30:41
990,3489440,Morant Bay,JM,-76.41,17.88,20,62,30.0,5.7,2019-08-14 00:30:43
991,775820,Blonie,PL,20.62,52.2,0,82,15.0,0.5,2019-08-14 00:30:44
992,5850554,Makakilo City,US,-158.09,21.35,1,62,30.75,5.7,2019-08-14 00:30:45
993,1018725,Bloemfontein,ZA,26.22,-29.12,0,47,2.0,1.0,2019-08-14 00:30:47
994,2659977,Luan,CH,6.98,46.36,0,67,13.29,0.5,2019-08-14 00:30:48
995,2794195,Koekelare,BE,2.98,51.09,20,87,12.33,3.1,2019-08-14 00:30:50
996,624785,Navahrudak,BY,25.82,53.59,62,95,14.38,2.13,2019-08-14 00:30:51
997,3379507,Bartica,GY,-58.62,6.41,75,94,24.0,2.1,2019-08-14 00:30:52
998,2016942,Seryshevo,RU,128.38,51.09,100,89,19.68,2.35,2019-08-14 00:30:54
999,1485997,Yeniseysk,RU,92.17,58.45,98,86,10.78,1.5,2019-08-14 00:30:55
1000,3443758,Artigas,BR,-56.46,-30.4,0,81,3.48,2.85,2019-08-14 00:30:57
1001,58933,Garowe,SO,48.48,8.41,6,68,23.78,14.61,2019-08-14 00:30:58
1002,3670629,Roncesvalles,CO,-75.61,4.01,75,65,26.05,1.5,2019-08-14 00:30:59
1003,3832791,Villa Carlos Paz,AR,-64.5,-31.42,0,69,3.0,3.6,2019-08-14 00:31:01
1004,174972,Shaki,AM,46.0,39.56,0,43,23.0,5.1,2019-08-14 00:31:02
1005,1257986,Markha,IN,77.42,33.89,91,73,8.68,1.02,2019-08-14 00:31:03
1006,2022232,Khrebtovaya,RU,104.25,56.71,48,84,10.78,0.88,2019-08-14 00:31:05
1007,2346896,Ogori,NG,7.84,7.33,36,97,21.48,3.44,2019-08-14 00:31:06
1008,239300,Mango,CF,22.36,4.65,63,97,20.68,0.57,2019-08-14 00:31:09
1009,687277,Zhurivka,UA,31.77,50.5,20,88,22.0,6.0,2019-08-14 00:31:10
1010,64013,Bosaso,SO,49.18,11.28,39,75,29.38,1.76,2019-08-14 00:31:12
1011,2123628,Magadan,RU,150.8,59.56,48,58,15.58,2.76,2019-08-14 00:31:13
1012,1259411,Ponnani,IN,75.93,10.77,90,83,24.0,4.6,2019-08-14 00:30:05
1013,3407407,Aquiraz,BR,-38.39,-3.9,75,74,27.0,4.1,2019-08-14 00:30:37
1014,5699404,Scottsbluff,US,-103.67,41.87,1,47,24.98,6.7,2019-08-14 00:31:17
1015,2024122,Gazimurskiy Zavod,RU,118.33,51.55,35,47,17.58,0.69,2019-08-14 00:31:18
1016,5955902,Fort Nelson,CA,-122.69,58.81,75,44,24.0,2.6,2019-08-14 00:31:20
1017,6050194,La Sarre,CA,-79.2,48.8,83,77,11.78,1.83,2019-08-14 00:31:21
1018,2654675,Wick,GB,-2.43,51.45,98,87,13.8,2.6,2019-08-14 00:31:23
1019,2318123,Yenagoa,NG,6.26,4.92,44,94,23.18,1.84,2019-08-14 00:31:24
1020,4566208,Maunabo,PR,-65.9,18.01,1,74,28.51,3.6,2019-08-14 00:31:25
1021,2028078,Aginskoye,RU,114.54,51.11,100,91,11.08,1.28,2019-08-14 00:31:27
1022,2640416,Sandwick,GB,-2.89,54.57,95,93,9.0,2.1,2019-08-14 00:27:45
1023,2263905,Ribeira Brava,PT,-17.07,32.65,40,64,22.0,7.7,2019-08-14 00:31:29
1024,1035025,Nacala,MZ,40.69,-14.56,0,94,18.58,2.32,2019-08-14 00:31:31
1025,2278158,Buchanan,LR,-10.05,5.88,75,100,24.0,6.94,2019-08-14 00:31:32
1026,5843495,Worland,US,-107.96,44.02,40,17,26.72,4.1,2019-08-14 00:31:34
1027,3910291,Mizque,BO,-65.34,-17.94,100,72,10.98,3.28,2019-08-14 00:31:35
1028,525426,Sobolevo,RU,31.9,54.43,61,98,15.68,2.83,2019-08-14 00:31:36
1029,2467813,Rafraf,TN,10.18,37.19,0,51,26.83,9.3,2019-08-14 00:31:38
1030,1273153,Deshnok,IN,73.34,27.8,14,51,32.18,6.01,2019-08-14 00:31:39
1031,2311968,Nioki,CD,17.69,-2.72,5,54,26.38,1.13,2019-08-14 00:31:41
1032,2206854,Gisborne,NZ,178.02,-38.66,30,68,12.48,7.77,2019-08-14 00:31:45
1033,727030,Milkovo,BG,24.68,41.53,0,52,21.0,3.6,2019-08-14 00:31:47
1034,3401845,Conceicao do Araguaia,BR,-49.26,-8.26,18,35,26.18,1.44,2019-08-14 00:31:49
1035,1529195,Shihezi,CN,86.03,44.3,6,20,26.48,4.71,2019-08-14 00:31:50
1036,2083537,Wewak,PG,143.63,-3.55,48,71,27.88,3.06,2019-08-14 00:28:05
1037,140463,Birjand,IR,59.22,32.86,0,38,16.0,2.1,2019-08-14 00:31:54
1038,1519938,Karatau,KZ,70.46,43.18,0,44,16.78,2.58,2019-08-14 00:31:55
1039,2454268,Koutiala,ML,-5.46,12.39,65,84,25.28,3.52,2019-08-14 00:31:57
1040,1264414,Mahasamund,IN,82.1,21.11,100,97,22.78,7.16,2019-08-14 00:31:58
1041,6693679,Gizo,IL,34.94,31.8,20,78,26.0,3.1,2019-08-14 00:32:00
1042,3838859,Rio Gallegos,AR,-69.22,-51.62,75,74,1.0,4.6,2019-08-14 00:31:02
1043,2399001,Mayumba,GA,10.65,-3.44,67,91,22.48,4.33,2019-08-14 00:32:04
1044,2265485,Obidos,PT,-9.16,39.36,0,72,16.33,4.6,2019-08-14 00:31:05
1045,2112539,Iwaki,JP,140.89,37.05,75,94,26.0,2.1,2019-08-14 00:32:06
1046,2111567,Oarai,JP,140.57,36.31,75,88,29.7,4.1,2019-08-14 00:32:08
1047,1254709,Tezu,IN,96.16,27.93,100,97,22.98,1.11,2019-08-14 00:32:09
1048,545673,Konakovo,RU,36.78,56.71,100,97,15.28,4.0,2019-08-14 00:32:10
1049,1217007,Koson,UZ,65.59,39.04,0,45,18.0,5.1,2019-08-14 00:32:12
1050,4033375,Tevaitoa,PF,-151.5,-16.78,99,71,25.68,3.35,2019-08-14 00:32:13
1051,1067565,Beloha,MG,45.06,-25.17,25,98,17.28,2.0,2019-08-14 00:32:15
1052,287832,Ibra,OM,58.55,22.69,24,54,27.98,1.12,2019-08-14 00:32:16
1053,2315026,Kasongo-Lunda,CD,16.82,-6.48,27,63,22.38,1.2,2019-08-14 00:32:17
1054,2439155,Tanout,NE,8.88,14.97,78,40,31.78,6.25,2019-08-14 00:32:19
1055,1502697,Kondinskoye,RU,67.41,59.65,94,70,13.68,3.47,2019-08-14 00:32:20
1056,236844,Ouango,CD,22.55,4.31,67,98,20.58,0.37,2019-08-14 00:32:21
1057,6148373,Sioux Lookout,CA,-91.92,50.1,75,40,20.0,1.5,2019-08-14 00:32:23
1058,664460,Colonia,RO,23.97,46.6,19,88,19.71,3.1,2019-08-14 00:32:24
1059,1276371,Bhabua,IN,83.61,25.04,21,87,26.38,4.15,2019-08-14 00:32:26
1060,565407,Dombarovskiy,RU,59.54,50.76,30,95,11.18,2.12,2019-08-14 00:32:27
1061,4898875,La Salle,US,-89.09,41.33,1,74,26.68,2.6,2019-08-14 00:32:29
1062,6157721,Stoughton,CA,-103.03,49.68,90,63,18.0,3.1,2019-08-14 00:32:30
1063,3348313,Huambo,AO,15.73,-12.78,0,30,11.08,0.31,2019-08-14 00:32:31
1064,3902377,Trinidad,BO,-64.9,-14.83,10,44,24.0,7.7,2019-08-14 00:27:58
1065,2017824,Pokrovsk,RU,129.14,61.48,92,62,18.38,2.49,2019-08-14 00:32:34
1066,49747,Xuddur,SO,43.89,4.12,100,69,21.48,8.17,2019-08-14 00:32:37
1067,1314759,Lashio,MM,97.75,22.93,100,99,21.38,0.16,2019-08-14 00:28:49
1068,1645528,Denpasar,ID,115.22,-8.65,75,94,25.0,6.2,2019-08-14 00:32:40
1069,2138285,Tadine,NC,167.88,-21.55,100,77,21.48,6.73,2019-08-14 00:32:43
1070,53654,Mogadishu,SO,45.34,2.04,95,77,23.58,6.31,2019-08-14 00:32:44
1071,2231564,Fontem,CM,9.85,5.49,16,96,21.68,0.31,2019-08-14 00:32:45
1072,1213655,Stabat,ID,98.46,3.76,40,94,25.0,1.5,2019-08-14 00:32:47
1073,1258295,Chaiya,IN,74.48,29.28,7,42,33.68,1.46,2019-08-14 00:32:48
1074,3457772,Marechal Candido Rondon,BR,-54.06,-24.56,40,35,14.68,2.76,2019-08-14 00:32:50
1075,2027276,Babushkin,RU,105.86,51.72,100,82,9.18,0.8,2019-08-14 00:32:51
1076,3457819,Marataizes,BR,-40.82,-21.04,0,90,20.58,2.27,2019-08-14 00:32:52
1077,6118787,Redwater,CA,-113.11,53.95,40,56,20.0,3.1,2019-08-14 00:32:54
1078,2232283,Elat,CM,11.16,2.91,46,99,19.08,0.97,2019-08-14 00:32:55
1079,1636544,Manado,ID,124.85,1.49,20,58,31.0,1.0,2019-08-14 00:28:27
1080,1490918,Staryy Nadym,RU,72.68,65.61,72,91,8.08,3.86,2019-08-14 00:32:58
1081,2068110,Kununurra,AU,128.74,-15.77,81,16,23.0,6.7,2019-08-14 00:32:59
1082,3573739,San Fernando,TT,-61.46,10.28,20,88,26.0,1.5,2019-08-14 00:33:01
1083,2108502,Honiara,SB,159.96,-9.43,20,62,31.0,4.1,2019-08-14 00:33:02
1084,1648759,Bima,ID,118.73,-8.45,17,82,22.58,1.42,2019-08-14 00:33:03
1085,1510689,Baykit,RU,96.39,61.68,56,83,11.38,0.71,2019-08-14 00:33:05
1086,1488414,Urengoy,RU,78.37,65.96,11,92,7.48,3.84,2019-08-14 00:33:06
1087,1499668,Malysheva,RU,61.4,57.12,40,93,16.0,5.0,2019-08-14 00:33:07
1088,2019309,Neryungri,RU,124.71,56.66,48,94,12.08,1.67,2019-08-14 00:33:09
1089,1528121,Karakol,KG,78.39,42.49,100,93,15.18,2.28,2019-08-14 00:31:16
1090,4500920,Brigantine,US,-74.36,39.41,90,88,24.47,3.19,2019-08-14 00:28:44
1091,1283190,Kirtipur,NP,85.28,27.68,75,100,22.0,1.0,2019-08-14 00:33:13
1092,508034,Podporozhye,RU,34.16,60.91,21,96,10.58,1.03,2019-08-14 00:33:14
1093,468082,Yelabuga,RU,52.06,55.76,90,93,11.0,4.0,2019-08-14 00:32:07
1094,1269653,Itarsi,IN,77.76,22.61,100,96,23.38,3.16,2019-08-14 00:33:17
1095,6137063,Dorchester,CA,-64.52,45.9,75,60,20.0,2.6,2019-08-14 00:33:18
1096,1337606,Eydhafushi,MV,73.07,5.1,100,74,28.38,5.02,2019-08-14 00:33:20
1097,390054,Baft,IR,56.61,29.23,53,39,13.88,4.19,2019-08-14 00:33:21
1098,3645532,Ciudad Bolivar,VE,-63.55,8.12,73,76,25.78,4.46,2019-08-14 00:33:22
1099,2015913,Suntar,RU,117.65,62.16,100,67,16.78,1.24,2019-08-14 00:33:24
1100,2522325,Aguimes,ES,-15.45,27.91,20,73,22.0,9.8,2019-08-14 00:33:25
1101,4470244,Havelock,US,-76.9,34.88,1,69,28.43,2.1,2019-08-14 00:32:47
1102,2212775,Sabha,LY,14.43,27.03,12,13,26.48,3.73,2019-08-14 00:33:28
1103,3557758,Guane,CU,-84.09,22.2,81,68,29.88,3.84,2019-08-14 00:33:29
1104,3133895,Tromso,NO,18.96,69.65,75,93,10.59,4.6,2019-08-14 00:33:31
1105,2014624,Udachnyy,RU,112.4,66.42,75,87,12.0,2.0,2019-08-14 00:33:32
1106,5815136,Washougal,US,-122.35,45.58,1,27,31.74,4.1,2019-08-14 00:32:37
1107,6295855,Saint-Georges,CA,-70.67,46.12,24,77,12.78,2.37,2019-08-14 00:29:17
1108,3676604,Rosarito,CO,-75.23,4.91,75,51,23.7,2.1,2019-08-14 00:33:36
1109,5000947,Marquette,US,-87.4,46.54,90,77,17.06,5.7,2019-08-14 00:30:12
1110,2664996,Varberg,SE,12.25,57.11,63,71,12.99,5.7,2019-08-14 00:33:39
1111,2511930,Requena,ES,-1.1,39.49,20,78,22.99,2.1,2019-08-14 00:33:40
1112,3567834,Baracoa,CU,-74.5,20.35,27,77,29.08,4.61,2019-08-14 00:33:42
1113,108410,Riyadh,SA,46.72,24.63,0,19,30.0,3.1,2019-08-14 00:33:44
1114,335943,Gore,ET,35.53,8.15,100,98,12.08,0.95,2019-08-14 00:33:26
1115,2015179,Tommot,RU,126.27,58.97,100,96,13.28,1.86,2019-08-14 00:33:47
1116,2444219,Goure,NE,10.27,13.98,83,44,29.88,5.93,2019-08-14 00:33:48
1117,1255647,Srikakulam,IN,83.89,18.29,100,84,24.28,1.54,2019-08-14 00:33:50
1118,778362,Oksfjord,NO,22.35,70.24,79,81,9.4,6.2,2019-08-14 00:33:51
1119,1281256,Gamba,CN,88.52,28.28,85,73,6.28,1.29,2019-08-14 00:33:52
1120,467252,Yermish,RU,42.27,54.77,99,72,17.28,4.7,2019-08-14 00:33:54
1121,3591676,Panzos,GT,-89.67,15.4,2,76,22.08,1.04,2019-08-14 00:33:55
1122,4202810,Jesup,US,-81.89,31.61,1,70,30.37,3.14,2019-08-14 00:33:57
1123,706352,Pryozerne,UA,24.47,49.42,75,93,18.01,5.0,2019-08-14 00:33:58
1124,2013639,Verkhnevilyuysk,RU,120.31,63.45,79,59,19.68,1.63,2019-08-14 00:33:59
1125,2165478,Gladstone,AU,151.26,-23.84,24,56,21.0,5.1,2019-08-14 00:34:01
1126,1527121,Tyup,KG,78.36,42.73,100,93,8.18,1.51,2019-08-14 00:34:02
1127,1252783,Yarada,IN,83.27,17.65,75,88,27.0,4.1,2019-08-14 00:34:03
1128,2427336,Moussoro,TD,16.49,13.64,12,62,28.18,2.2,2019-08-14 00:34:05
1129,5877641,Wasilla,US,-149.44,61.58,90,64,20.62,1.74,2019-08-14 00:33:03
1130,1203891,Dinajpur,BD,88.63,25.63,90,87,26.88,6.66,2019-08-14 00:34:10
1131,5384339,Port Hueneme,US,-119.2,34.15,75,77,22.93,4.1,2019-08-14 00:32:59
1132,4870380,Ottumwa,US,-92.41,41.02,1,65,27.43,3.6,2019-08-14 00:34:14
1133,2025456,Chernyshevskiy,RU,112.47,63.01,93,59,16.58,2.04,2019-08-14 00:34:15
1134,564719,Dubna,RU,37.14,56.76,100,97,16.08,3.6,2019-08-14 00:34:17
1135,3393471,Oriximina,BR,-55.87,-1.77,64,60,29.98,1.1,2019-08-14 00:34:18
1136,2662689,Visby,SE,18.3,57.64,78,72,16.0,7.2,2019-08-14 00:34:20
1137,6100069,Peace River,CA,-117.29,56.23,20,49,22.0,6.7,2019-08-14 00:34:21
1138,2638664,Salisbury,GB,-1.8,51.07,89,87,14.0,2.6,2019-08-14 00:31:25
1139,2030159,Bayangol,MN,106.09,48.91,21,81,11.48,0.98,2019-08-14 00:34:24
1140,341297,Butajira,ET,38.38,8.12,100,98,11.28,1.45,2019-08-14 00:34:25
1141,1218436,Sayat,TM,63.88,38.78,0,48,19.0,6.2,2019-08-14 00:34:26
1142,3393692,Itarema,BR,-39.92,-2.92,3,77,25.28,5.14,2019-08-14 00:34:29
1143,3694564,Moyobamba,PE,-76.97,-6.03,0,80,19.58,1.37,2019-08-14 00:34:30
1144,3387625,Simoes,BR,-40.82,-7.6,0,48,22.48,2.09,2019-08-14 00:34:32
1145,2082539,Merauke,ID,140.4,-8.49,93,82,24.78,7.55,2019-08-14 00:34:33
1146,5655240,Great Falls,US,-111.29,47.5,1,20,24.66,5.1,2019-08-14 00:34:35
1147,6539761,Rome,IT,12.48,41.89,0,73,24.1,2.1,2019-08-14 00:34:37
1148,3166638,Serravalle Pistoiese,IT,10.83,43.91,0,72,19.47,1.0,2019-08-14 00:34:39
1149,2373526,Catio,GW,-15.25,11.28,100,87,26.48,5.96,2019-08-14 00:34:41
1150,1253024,Waghai,IN,73.5,20.77,100,88,26.28,3.09,2019-08-14 00:34:43
1151,3388456,Sao Jose da Coroa Grande,BR,-35.15,-8.9,1,95,20.88,1.22,2019-08-14 00:34:44
1152,2519277,Consuegra,ES,-3.61,39.46,1,35,18.98,1.04,2019-08-14 00:34:47
1153,2021093,Kuytun,RU,101.51,54.34,100,94,10.78,3.2,2019-08-14 00:34:48
1154,2167426,Emerald,AU,148.16,-23.53,0,45,18.0,3.6,2019-08-14 00:34:50
1155,2068655,Katherine,AU,132.26,-14.47,70,26,21.0,4.6,2019-08-14 00:34:51
1156,1058381,Morondava,MG,44.28,-20.3,0,66,23.18,3.42,2019-08-14 00:34:52
1157,3663516,Parana,BR,-72.89,-7.52,0,83,25.0,0.77,2019-08-14 00:34:54
1158,2064550,Northam,AU,116.67,-31.65,90,93,14.0,2.6,2019-08-14 00:34:55
1159,3358416,Bethanien,NA,17.16,-26.5,0,44,7.18,2.36,2019-08-14 00:34:56
1160,359173,Beni Suef,EG,31.1,29.07,0,45,26.48,4.12,2019-08-14 00:34:58
1161,3445459,Varzea da Palma,BR,-44.73,-17.6,0,41,19.08,0.99,2019-08-14 00:30:21
1162,2435708,Beinamar,TD,15.38,8.67,95,91,22.18,0.98,2019-08-14 00:35:01
1163,2024626,Dzhebariki-Khaya,RU,135.8,62.22,0,49,22.38,0.33,2019-08-14 00:35:02
1164,3174050,Mantua,IT,10.79,45.16,75,69,23.7,3.6,2019-08-14 00:35:03
1165,3663145,Curuca,BR,-61.06,-2.52,24,53,26.68,0.77,2019-08-14 00:35:05
1166,463355,Zheleznodorozhnyy,RU,38.0,55.75,75,82,18.75,3.68,2019-08-14 00:35:07
1167,5052658,White Bear Lake,US,-93.01,45.08,75,88,20.71,1.5,2019-08-14 00:35:05
1168,4160021,Jacksonville,US,-81.66,30.33,1,66,30.22,3.1,2019-08-14 00:31:39
1169,3470709,Barra do Garcas,BR,-52.26,-15.89,0,37,24.58,1.49,2019-08-14 00:35:13
1170,1113217,Zabol,IR,61.49,31.03,51,31,26.0,13.9,2019-08-14 00:35:14
1171,2017945,Petrovsk-Zabaykalskiy,RU,108.84,51.27,49,88,9.68,1.36,2019-08-14 00:35:16
1172,1259091,Kollam,IN,76.6,8.88,75,94,24.0,4.1,2019-08-14 00:35:00
1173,1259827,Phagwara,IN,75.77,31.22,100,74,27.88,2.92,2019-08-14 00:35:18
1174,6071421,Meadow Lake,CA,-108.44,54.13,75,72,18.0,5.7,2019-08-14 00:35:20
1175,1801374,Babu,CN,104.89,23.23,99,87,20.48,0.85,2019-08-14 00:35:21
1176,2283016,Odienne,CI,-7.57,9.51,89,96,22.18,1.01,2019-08-14 00:35:24
1177,1640902,Kawalu,ID,108.21,-7.38,75,91,20.38,1.03,2019-08-14 00:35:25
1178,3439378,Ayolas,PY,-56.84,-27.39,0,73,7.88,3.54,2019-08-14 00:35:28
1179,4685892,Denison,US,-96.54,33.76,1,79,31.86,4.27,2019-08-14 00:35:29
1180,2035707,Mujiayingzi,CN,118.78,42.12,68,62,18.78,1.77,2019-08-14 00:35:30
1181,1803782,Lichuan,CN,108.94,30.3,0,64,24.38,1.25,2019-08-14 00:35:33
1182,757178,Szydlowiec,PL,20.86,51.23,80,69,16.08,0.8,2019-08-14 00:35:34
1183,4981710,Van Buren,US,-67.94,47.16,1,55,17.01,2.1,2019-08-14 00:35:36
1184,1835848,Seoul,KR,126.98,37.57,1,70,30.0,0.5,2019-08-14 00:35:06
1185,1064275,Ihosy,MG,46.13,-22.4,14,92,12.58,4.24,2019-08-14 00:35:39
1186,204953,Tshikapa,CD,20.79,-6.42,0,44,24.58,0.45,2019-08-14 00:35:40
1187,331038,Mendi,ET,35.1,9.8,100,95,16.68,1.77,2019-08-14 00:35:41
1188,3870282,Talcahuano,CL,-73.12,-36.72,0,44,14.0,3.6,2019-08-14 00:35:43
1189,1805528,Wucheng,CN,119.57,29.09,0,77,27.78,0.48,2019-08-14 00:35:44
1190,3460963,Itaberai,BR,-49.81,-16.02,0,32,21.88,2.55,2019-08-14 00:34:17
1191,2109528,Buala,SB,159.59,-8.15,100,85,25.68,7.71,2019-08-14 00:35:47
1192,2121373,Seymchan,RU,152.39,62.93,0,49,14.48,4.82,2019-08-14 00:35:48
1193,6138501,Saint-Augustin,CA,-73.98,45.63,75,41,22.34,3.6,2019-08-14 00:35:49
1194,1061605,Manakara,MG,48.01,-22.14,40,92,18.18,1.02,2019-08-14 00:35:51
1195,6559781,Casma,PE,-78.3,-9.47,8,89,15.48,2.66,2019-08-14 00:35:54
1196,588157,Risti,EE,24.06,59.0,20,93,13.0,3.1,2019-08-14 00:35:55
1197,3837056,San Luis,AR,-66.34,-33.3,17,38,9.68,5.01,2019-08-14 00:35:36
1198,1250161,Batticaloa,LK,81.69,7.71,93,78,24.38,1.18,2019-08-14 00:35:59
1199,2306104,Accra,GH,-0.21,5.56,90,88,25.0,6.2,2019-08-14 00:32:33
1200,3388447,Sao Jose da Tapera,BR,-37.38,-9.56,3,95,19.58,2.76,2019-08-14 00:36:02
1201,5711847,Astoria,US,-123.83,46.19,1,60,23.0,3.6,2019-08-14 00:36:03
1202,3521168,Ursulo Galvan,MX,-97.44,20.6,5,62,32.0,3.1,2019-08-14 00:36:05
1203,2972468,Tonneins,FR,0.31,44.39,0,93,12.48,0.5,2019-08-14 00:36:06
1204,2018735,Nyurba,RU,118.35,63.29,89,68,16.68,1.42,2019-08-14 00:36:07
1205,1607280,Prachin Buri,TH,101.37,14.05,100,89,26.08,2.57,2019-08-14 00:35:39
1206,1788268,Dongsheng,CN,112.52,29.72,34,81,26.48,1.64,2019-08-14 00:36:10
1207,2501152,Constantine,DZ,6.61,36.36,75,82,20.0,2.1,2019-08-14 00:36:11
1208,2260009,Ewo,CG,14.81,-0.88,31,67,25.28,3.43,2019-08-14 00:36:13
1209,607610,Zhanaozen,KZ,52.85,43.35,0,61,16.98,6.01,2019-08-14 00:36:14
1210,5391295,Salinas,US,-121.66,36.67,1,56,24.27,5.7,2019-08-14 00:34:11
1211,4033356,Tiarei,PF,-149.33,-17.53,20,66,29.0,6.7,2019-08-14 00:36:18
1212,4116834,Jonesboro,US,-90.7,35.84,20,83,28.29,3.6,2019-08-14 00:36:21
1213,506763,Polyarnyy,RU,33.45,69.2,75,87,12.0,1.0,2019-08-14 00:36:22
1214,95788,Hit,IQ,42.83,33.64,16,14,35.18,5.68,2019-08-14 00:36:24
1215,3970558,Rio Muerto,MX,-110.23,27.42,20,31,38.0,5.1,2019-08-14 00:36:25
1216,6171633,Ucluelet,CA,-125.55,48.94,40,53,23.0,1.0,2019-08-14 00:32:03
1217,2051471,Dalnegorsk,RU,135.58,44.56,100,93,14.88,1.13,2019-08-14 00:36:28
1218,1490796,Strezhevoy,RU,77.6,60.73,0,87,13.0,3.0,2019-08-14 00:36:29
1219,3460940,Itacare,BR,-39.0,-14.28,75,88,24.0,2.6,2019-08-14 00:36:31
1220,3577430,Road Town,VG,-64.62,18.42,40,70,29.0,4.1,2019-08-14 00:35:16
1221,4639848,Maryville,US,-83.97,35.76,90,83,25.74,2.45,2019-08-14 00:36:33
1222,551847,Kaspiysk,RU,47.64,42.88,0,49,22.0,4.0,2019-08-14 00:31:53
1223,3684276,El Doncello,CO,-75.28,1.68,99,98,20.78,0.86,2019-08-14 00:36:36
1224,1650434,Bambanglipuro,ID,110.28,-7.95,19,87,22.68,1.77,2019-08-14 00:36:37
1225,3994469,Ojinaga,US,-104.41,29.56,1,25,36.0,7.7,2019-08-14 00:36:39
1226,2021017,Kysyl-Syr,RU,122.77,63.9,0,55,20.38,1.92,2019-08-14 00:36:40
1227,3372783,Ponta Delgada,PT,-25.67,37.73,20,88,20.0,1.0,2019-08-14 00:36:42
1228,3145386,Mosjoen,NO,13.19,65.84,100,93,11.0,7.2,2019-08-14 00:36:44
1229,1259222,Punjai Puliyampatti,IN,77.2,11.35,75,88,23.0,5.1,2019-08-14 00:36:46
1230,1028918,Pemba,MZ,40.52,-12.97,20,100,22.0,3.1,2019-08-14 00:36:48
1231,3629710,Puerto Ayacucho,CO,-67.63,5.66,40,88,26.0,3.01,2019-08-14 00:36:50
1232,3463237,Florianopolis,BR,-48.55,-27.6,75,62,12.0,8.2,2019-08-14 00:36:51
1233,1045114,Inhambane,MZ,35.38,-23.87,6,98,17.98,0.93,2019-08-14 00:36:52
1234,293992,Ofaqim,IL,34.62,31.31,0,80,23.28,1.47,2019-08-14 00:36:54
1235,3397763,Jacareacanga,BR,-57.76,-6.22,99,41,26.28,0.42,2019-08-14 00:36:56
1236,1633034,Liku,ID,119.89,-0.73,0,75,27.48,4.24,2019-08-14 00:36:58
1237,1151933,Nakhon Si Thammarat,TH,99.96,8.43,20,100,25.0,0.97,2019-08-14 00:36:59
1238,5983607,Inuvik,CA,-133.71,68.36,75,87,15.21,1.5,2019-08-14 00:37:01
1239,3164565,Vila,IT,8.4,45.18,0,40,19.5,5.7,2019-08-14 00:37:02
1240,543508,Kovdor,RU,30.47,67.56,100,98,10.38,0.87,2019-08-14 00:37:03
1241,3395497,Maracacume,BR,-45.96,-2.04,31,97,22.98,1.79,2019-08-14 00:37:05
1242,2511716,Roquetas de Mar,ES,-2.61,36.76,75,78,25.0,2.6,2019-08-14 00:37:06
1243,4102412,Blytheville,US,-89.92,35.93,20,74,29.8,1.44,2019-08-14 00:32:47
1244,481955,Totskoye,RU,52.75,52.53,21,95,9.58,5.5,2019-08-14 00:37:09
1245,2057087,Kupang,ID,123.6,-10.16,20,36,27.0,7.7,2019-08-14 00:37:10
1246,174611,Sinjar,SY,37.0,35.59,0,58,23.38,3.93,2019-08-14 00:37:12
1247,691693,Druzhba,UA,25.65,49.36,83,97,17.98,2.85,2019-08-14 00:37:14
1248,3447409,Sombrio,BR,-49.63,-29.11,9,82,2.78,2.88,2019-08-14 00:37:16
1249,933088,Serowe,BW,26.7,-22.4,0,82,11.78,3.62,2019-08-14 00:37:17
1250,7413703,Madang,CN,102.79,35.32,0,78,6.48,0.49,2019-08-14 00:37:18
1251,2345521,Damaturu,NG,11.96,11.75,14,67,25.98,3.57,2019-08-14 00:37:20
1252,3662342,Sao Gabriel da Cachoeira,BR,-67.09,-0.13,68,94,23.78,0.84,2019-08-14 00:37:21
1253,2447513,Arlit,NE,7.39,18.74,31,39,31.68,2.8,2019-08-14 00:37:23
1254,3424901,Aasiaat,GL,-52.87,68.71,65,64,6.48,3.5,2019-08-14 00:37:24
1255,6138802,Saint-Michel-des-Saints,CA,-73.92,46.68,31,72,11.18,1.79,2019-08-14 00:37:25
1256,933726,Hukuntsi,BW,21.76,-23.98,0,35,15.08,1.77,2019-08-14 00:37:28
1257,503878,Pustoshka,RU,29.37,56.34,42,97,12.38,1.75,2019-08-14 00:37:29
1258,1623446,Tomohon,ID,124.84,1.33,20,58,31.0,1.0,2019-08-14 00:37:31
1259,5881688,Fort Saint James,CA,-124.25,54.43,19,34,22.88,1.56,2019-08-14 00:37:32
1260,1278935,Amalapuram,IN,82.0,16.58,100,87,24.18,1.13,2019-08-14 00:37:34
1261,1735459,Teluk Intan,MY,101.03,4.02,75,88,26.0,0.88,2019-08-14 00:37:35
1262,3517970,Pochutla,MX,-96.47,15.74,40,70,30.0,3.1,2019-08-14 00:37:36
1263,2100765,Angoram,PG,144.07,-4.06,47,67,29.38,1.67,2019-08-14 00:37:38
1264,2271968,Aljezur,PT,-8.8,37.31,1,70,19.18,7.24,2019-08-14 00:37:39
1265,3709361,Garachine,PA,-78.36,8.06,100,85,27.48,4.65,2019-08-14 00:37:41
1266,2013465,Verkhoyansk,RU,133.39,67.55,58,39,20.08,0.44,2019-08-14 00:37:42
1267,2176639,Batemans Bay,AU,150.18,-35.71,0,51,14.48,1.41,2019-08-14 00:37:43
1268,3398931,Gilbues,BR,-45.34,-9.83,19,35,25.88,2.0,2019-08-14 00:37:45
1269,685981,Manta,RO,24.1,45.1,0,61,19.48,2.68,2019-08-14 00:37:46
1270,3184575,Dukat,AL,19.57,40.25,0,69,25.28,1.13,2019-08-14 00:37:48
1271,3456593,Mucuri,BR,-39.55,-18.08,0,89,20.38,2.84,2019-08-14 00:37:50
1272,1635815,Maumere,ID,122.22,-8.63,90,68,24.88,1.23,2019-08-14 00:37:52
1273,2350592,Ode,NG,4.32,8.45,27,96,21.48,3.26,2019-08-14 00:37:53
1274,3648698,Bachaquero,VE,-71.12,9.96,5,69,31.78,6.97,2019-08-14 00:37:54
1275,609404,Khromtau,KZ,58.44,50.26,98,91,11.98,6.54,2019-08-14 00:37:57
1276,1636308,Manokwari,ID,134.08,-0.87,73,80,26.08,0.79,2019-08-14 00:37:58
1277,5605242,Rexburg,US,-111.79,43.82,1,16,27.59,4.1,2019-08-14 00:38:00
1278,4676798,Brownwood,US,-98.99,31.71,1,27,36.75,5.1,2019-08-14 00:38:02
1279,3151056,Inndyr,NO,14.03,67.03,75,93,14.0,6.7,2019-08-14 00:38:04
1280,2441530,Madaoua,NE,5.96,14.07,62,54,29.78,5.15,2019-08-14 00:38:05
1281,3395458,Maragogi,BR,-35.22,-9.01,1,95,20.88,1.22,2019-08-14 00:38:07
1282,6324729,Halifax,CA,-63.58,44.65,75,82,20.0,3.6,2019-08-14 00:37:56
1283,4449620,Vicksburg,US,-90.88,32.35,1,70,31.16,1.19,2019-08-14 00:33:58
1284,1275812,Bhuj,IN,69.67,23.25,81,83,27.38,5.95,2019-08-14 00:38:12
1285,3899539,Antofagasta,CL,-70.4,-23.65,75,82,14.0,7.7,2019-08-14 00:34:41
1286,3466978,Carazinho,BR,-52.79,-28.3,0,82,3.68,3.72,2019-08-14 00:38:15
1287,562878,Fershampenuaz,RU,59.82,53.52,90,93,14.48,5.24,2019-08-14 00:38:16
1288,122285,Neyshabur,IR,58.79,36.21,0,50,11.78,2.26,2019-08-14 00:38:19
1289,1268814,Joshimath,IN,79.57,30.57,97,92,13.88,0.3,2019-08-14 00:38:20
1290,1526038,Atbasar,KZ,68.36,51.81,9,69,13.28,0.46,2019-08-14 00:38:21
1291,69559,Zabid,YE,44.5,14.2,50,71,21.68,0.47,2019-08-14 00:38:23
1292,560674,Golovchino,RU,35.8,50.53,0,49,23.0,5.0,2019-08-14 00:38:24
1293,1549542,Donghai,CN,118.76,34.52,0,85,24.18,2.64,2019-08-14 00:38:26
1294,3471840,Aragarcas,BR,-52.25,-15.9,0,37,24.58,1.49,2019-08-14 00:37:23
1295,3420768,Qasigiannguit,GL,-51.19,68.82,20,40,11.0,4.6,2019-08-14 00:38:28
1296,2185329,Waipawa,NZ,176.59,-39.94,20,71,11.38,3.65,2019-08-14 00:38:30
1297,457954,Liepaja,LV,21.02,56.52,38,82,17.58,7.7,2019-08-14 00:38:31
1298,2435124,Bitkine,TD,18.21,11.98,63,83,24.48,2.51,2019-08-14 00:38:32
1299,1937274,Irara,TL,127.01,-8.52,0,60,22.78,4.37,2019-08-14 00:38:35
1300,5949568,Estevan,CA,-102.99,49.14,90,63,19.08,3.1,2019-08-14 00:38:36
1301,3981391,Tomatlan,MX,-105.25,19.93,50,75,29.78,8.58,2019-08-14 00:38:38
1302,1627877,Sembakung,ID,117.25,3.82,40,88,27.0,2.1,2019-08-14 00:38:39
1303,3353871,Otjimbingwe,NA,16.13,-22.35,0,15,11.98,0.72,2019-08-14 00:38:41
1304,4712933,Mount Pleasant,US,-94.97,33.16,1,37,35.74,1.54,2019-08-14 00:35:23
1305,153955,Micheweni,TZ,39.83,-4.97,4,77,24.38,4.87,2019-08-14 00:38:43
1306,1808857,Hanzhong,CN,107.03,33.08,25,64,22.68,0.94,2019-08-14 00:38:45
1307,101554,Tarut,SA,50.06,26.57,35,75,32.45,2.1,2019-08-14 00:38:47
1308,1648186,Bontang,ID,117.47,0.12,36,92,25.58,0.4,2019-08-14 00:38:49
1309,2444995,Filingue,NE,3.32,14.35,0,42,30.38,3.06,2019-08-14 00:38:50
1310,6185217,Yarmouth,CA,-66.12,43.84,90,100,17.0,3.6,2019-08-14 00:38:24
1311,2093967,Kimbe,PG,150.15,-5.56,0,60,30.08,1.97,2019-08-14 00:38:53
1312,2168305,Dubbo,AU,148.6,-32.25,0,61,9.0,3.6,2019-08-14 00:38:54
1313,2986626,Plouzane,FR,-4.62,48.38,75,87,15.24,5.7,2019-08-14 00:38:56
1314,2686469,Ornskoldsvik,SE,18.72,63.29,98,93,13.55,1.5,2019-08-14 00:38:57
1315,3458498,Linhares,BR,-40.06,-19.38,0,70,20.48,0.93,2019-08-14 00:39:00
1316,5935341,Dauphin,CA,-100.04,51.15,1,40,22.0,1.5,2019-08-14 00:35:13
1317,117392,Mitu,IR,46.09,36.2,0,59,16.48,1.43,2019-08-14 00:39:04
1318,3995142,Naica,MX,-105.49,27.86,17,42,27.08,15.05,2019-08-14 00:39:05
1319,1792628,Yuli,CN,106.77,24.82,33,93,23.18,0.37,2019-08-14 00:39:07
1320,5883074,Albanel,CA,-72.44,48.88,20,67,14.0,4.1,2019-08-14 00:39:08
1321,1268008,Kanniyakumari,IN,77.57,8.08,100,88,25.38,13.41,2019-08-14 00:39:09
1322,360923,Port Said,EG,30.55,25.34,81,15,28.88,3.25,2019-08-14 00:39:11
1323,1028434,Quelimane,MZ,36.89,-17.88,0,94,21.0,1.2,2019-08-14 00:39:14
1324,3202942,Senj,HR,13.91,45.35,94,88,19.99,0.5,2019-08-14 00:39:15
1325,1485284,Zelenogorskiy,RU,87.0,55.03,0,81,12.0,1.29,2019-08-14 00:39:16
1326,235826,Zemio,CF,25.13,5.02,56,97,20.08,0.58,2019-08-14 00:39:18
1327,1805753,Jinan,CN,117.11,36.65,12,81,23.58,1.61,2019-08-14 00:39:19
1328,1278609,Anekal,IN,77.7,12.71,40,100,21.0,4.6,2019-08-14 00:39:21
1329,2269142,Colares,PT,-9.45,38.8,0,67,17.57,5.1,2019-08-14 00:39:22
1330,5404198,Twentynine Palms,US,-116.05,34.14,1,6,42.04,4.2,2019-08-14 00:39:23
1331,2129218,Yoichi,JP,140.77,43.19,75,73,22.0,6.2,2019-08-14 00:39:25
1332,138025,Damghan,IR,54.34,36.17,0,69,10.38,0.47,2019-08-14 00:39:26
1333,3461370,Imbituba,BR,-48.67,-28.24,75,62,12.0,8.2,2019-08-14 00:39:28
1334,4260329,Liberty,US,-84.93,39.64,40,94,25.72,3.76,2019-08-14 00:37:55
1335,503977,Marfino,RU,37.56,56.07,90,93,19.0,5.0,2019-08-14 00:39:30
1336,1142264,Farah,AF,62.11,32.37,0,28,21.98,4.23,2019-08-14 00:39:32
1337,2038067,Chifeng,CN,118.96,42.27,83,53,20.98,5.69,2019-08-14 00:37:24
1338,2351027,Jalingo,NG,10.93,10.3,60,94,22.78,2.43,2019-08-14 00:39:34
1339,6359954,Pravia,ES,-6.11,43.49,0,82,17.0,2.6,2019-08-14 00:39:36
1340,4274906,Lyndon,US,-95.68,38.61,1,54,30.41,3.1,2019-08-14 00:39:37
1341,3394023,Natal,BR,-35.21,-5.81,75,83,23.51,3.1,2019-08-14 00:39:39
1342,889942,Hwange,ZW,26.5,-18.35,0,33,15.68,4.2,2019-08-14 00:39:40
1343,2173323,Bundaberg,AU,152.35,-24.87,90,56,21.0,4.1,2019-08-14 00:39:41
1344,2209055,Waddan,LY,16.14,29.16,10,44,24.58,3.25,2019-08-14 00:39:43
1345,1502096,Koshurnikovo,RU,93.39,54.3,3,79,10.18,0.86,2019-08-14 00:39:44
1346,5703670,Elko,US,-115.76,40.83,1,11,32.0,1.5,2019-08-14 00:39:45
1347,1862555,Hirado,JP,129.49,33.32,75,94,30.61,8.7,2019-08-14 00:39:47
1348,2033128,Zhenlai,CN,123.2,45.84,84,70,22.78,4.35,2019-08-14 00:39:48
1349,6088469,Nipawin,CA,-104.02,53.36,40,53,22.0,3.6,2019-08-14 00:39:50
1350,2161515,Kiama,AU,150.86,-34.67,20,54,13.0,3.6,2019-08-14 00:39:51
1351,3461013,Irece,BR,-41.86,-11.3,0,55,19.38,4.53,2019-08-14 00:36:55
1352,6104745,Pilot Butte,CA,-104.42,50.48,75,68,18.0,2.6,2019-08-14 00:39:54
1353,2036581,Jiamusi,CN,130.37,46.81,100,99,18.38,1.96,2019-08-14 00:39:55
1354,1082639,Ambatondrazaka,MG,48.43,-17.82,55,93,12.58,3.12,2019-08-14 00:39:57
1355,3470871,Barao de Melgaco,BR,-55.97,-16.19,0,57,25.0,7.2,2019-08-14 00:39:58
1356,3114566,Palamos,ES,3.13,41.85,20,59,19.0,2.1,2019-08-14 00:39:59
1357,1511057,Bakchar,RU,82.07,57.02,0,91,9.38,2.07,2019-08-14 00:35:12
1358,614455,Gori,GE,44.11,41.99,0,64,16.48,3.8,2019-08-14 00:40:02
1359,2169068,Deniliquin,AU,144.96,-35.53,88,68,9.68,2.82,2019-08-14 00:40:03
1360,3665202,Aripuana,BR,-60.63,-9.17,66,38,27.28,0.94,2019-08-14 00:40:05
1361,5374920,Morro Bay,US,-120.85,35.37,90,93,25.91,1.5,2019-08-14 00:37:13
1362,1253870,Umarga,IN,76.62,17.84,100,87,22.98,4.97,2019-08-14 00:40:08
1363,6943488,Amqui,CA,-67.43,48.47,20,63,16.0,4.1,2019-08-14 00:40:09
1364,5055787,Kirksville,US,-92.58,40.19,1,48,27.95,3.6,2019-08-14 00:37:18
1365,1538641,Kedrovyy,RU,91.82,56.17,90,87,13.0,1.0,2019-08-14 00:40:12
1366,104515,Mecca,SA,39.83,21.43,0,62,29.68,1.96,2019-08-14 00:37:02
1367,1213855,Sibolga,ID,98.78,1.74,100,77,27.68,2.53,2019-08-14 00:40:14
1368,173334,Gonen,IL,35.65,33.12,0,29,22.98,2.26,2019-08-14 00:40:16
1369,2019935,Mnogovershinnyy,RU,139.92,53.94,95,90,15.08,1.64,2019-08-14 00:40:17
1370,779330,Kautokeino,NO,23.04,69.01,100,96,8.88,2.55,2019-08-14 00:40:19
1371,4787534,Sterling,US,-77.4,39.0,40,88,27.29,1.5,2019-08-14 00:40:20
1372,299582,Tatvan,TR,42.28,38.5,0,62,16.38,2.08,2019-08-14 00:40:21
