,city_id,City,Country,Lon,Lat,Cloudiness (%),Humidity,Temp,Wind Speed,Time
0,2339937,Auki,NG,6.51,12.18,85,73,25.44,4.91,2019-07-12 19:40:01
1,3378644,Georgetown,GY,-58.16,6.8,40,74,28.93,4.1,2019-07-12 19:40:02
2,4035715,Avarua,CK,-159.78,-21.21,40,88,22.0,1.0,2019-07-12 19:40:04
3,2264923,Peniche,PT,-9.38,39.36,40,94,21.3,2.1,2019-07-12 19:40:05
4,1006984,East London,ZA,27.91,-33.02,76,91,13.34,3.81,2019-07-12 19:40:07
5,158321,Karema,TZ,30.44,-6.82,44,65,24.24,1.64,2019-07-12 19:40:08
6,3899695,Ancud,CL,-73.83,-41.87,90,87,9.0,7.7,2019-07-12 19:40:09
7,2163355,Hobart,AU,147.33,-42.88,40,75,4.78,4.1,2019-07-12 19:37:02
8,3421719,Narsaq,GL,-46.05,60.91,75,48,17.0,3.1,2019-07-12 19:40:12
9,5861897,Fairbanks,US,-147.72,64.84,90,87,15.58,1.66,2019-07-12 19:38:00
10,3529654,Dzilam Gonzalez,MX,-88.93,21.28,100,80,29.34,6.95,2019-07-12 19:40:15
11,986717,Kruisfontein,ZA,24.73,-34.0,7,93,11.94,4.48,2019-07-12 19:40:16
12,1637001,Luwuk,ID,122.79,-0.95,100,97,16.54,1.8,2019-07-12 19:40:18
13,6185377,Yellowknife,CA,-114.38,62.45,75,47,12.88,8.7,2019-07-12 19:40:19
14,462626,Zilair,RU,57.44,52.23,0,38,24.34,7.63,2019-07-12 19:40:20
15,3372707,Ribeira Grande,PT,-28.7,38.52,40,83,23.0,3.1,2019-07-12 19:37:34
16,4030556,Rikitea,PF,-134.97,-23.12,9,79,23.44,7.68,2019-07-12 19:37:35
17,1273574,Vaini,IN,74.49,15.34,100,91,24.94,2.03,2019-07-12 19:40:24
18,934322,Mahebourg,MU,57.7,-20.41,40,64,20.53,4.1,2019-07-12 19:40:26
19,4031574,Provideniya,RU,-173.23,64.42,100,38,21.94,1.02,2019-07-12 19:40:27
20,3374083,Bathsheba,BB,-59.52,13.22,75,88,27.0,9.3,2019-07-12 19:40:28
21,4931273,Brewster,US,-70.08,41.76,20,78,26.47,5.1,2019-07-12 19:40:27
22,4020109,Atuona,PF,-139.03,-9.8,24,71,26.54,7.15,2019-07-12 19:37:46
23,3874787,Punta Arenas,CL,-70.91,-53.16,90,93,5.76,5.1,2019-07-12 19:40:34
24,1507390,Dikson,RU,80.55,73.51,0,88,0.34,7.0,2019-07-12 19:40:36
25,3545841,Nuevitas,CU,-77.27,21.55,40,59,32.0,6.7,2019-07-12 19:40:38
26,964432,Port Alfred,ZA,26.89,-33.59,95,79,17.22,2.24,2019-07-12 19:37:38
27,4500920,Brigantine,US,-74.36,39.41,20,49,31.0,5.7,2019-07-12 19:39:21
28,1015776,Bredasdorp,ZA,20.04,-34.53,9,77,14.67,4.6,2019-07-12 19:40:42
29,2155415,New Norfolk,AU,147.06,-42.78,40,75,4.78,4.1,2019-07-12 19:40:43
30,4011743,Constitucion,MX,-104.67,23.99,75,53,22.36,3.6,2019-07-12 19:40:45
31,6138908,Saint-Philippe,CA,-73.48,45.36,40,65,25.1,6.7,2019-07-12 19:40:46
32,965401,Phuthaditjhaba,ZA,28.82,-28.53,0,39,6.14,2.08,2019-07-12 19:40:47
33,496285,Severodvinsk,RU,39.82,64.56,40,87,9.0,2.0,2019-07-12 19:38:58
34,3366880,Hermanus,ZA,19.24,-34.42,0,81,13.52,2.24,2019-07-12 19:40:50
35,4032369,Pangai,TO,-174.35,-19.8,40,78,23.0,7.2,2019-07-12 19:40:51
36,2160063,Codrington,AU,153.24,-28.95,100,76,12.42,3.6,2019-07-12 19:40:53
37,5106834,Albany,US,-73.75,42.65,75,57,24.87,6.2,2019-07-12 19:39:35
38,587450,Juba,EE,26.93,57.82,29,76,12.66,2.1,2019-07-12 19:40:55
39,2027044,Batagay,RU,134.64,67.65,100,52,22.34,0.86,2019-07-12 19:40:57
40,161974,Gazanjyk,TM,55.52,39.24,0,14,37.84,4.28,2019-07-12 19:41:00
41,361055,Ismailia,EG,32.27,30.6,0,74,23.54,2.65,2019-07-12 19:41:01
42,2138522,Poya,NC,165.16,-21.35,99,77,19.44,2.73,2019-07-12 19:41:04
43,2013727,Vanavara,RU,102.28,60.35,64,84,12.44,1.21,2019-07-12 19:41:05
44,2069194,Jamestown,AU,138.6,-33.21,37,91,4.44,3.02,2019-07-12 19:41:08
45,2447513,Arlit,NE,7.39,18.74,0,18,37.24,5.52,2019-07-12 19:41:09
46,3671437,Puerto Leguizamo,CO,-74.78,-0.19,75,49,30.94,1.05,2019-07-12 19:41:11
47,2175403,Bluff,AU,149.07,-23.58,32,53,12.54,2.11,2019-07-12 19:37:45
48,1630789,Pontianak,ID,109.34,-0.02,68,79,27.54,6.34,2019-07-12 19:41:13
49,3901903,Uyuni,BO,-66.82,-20.46,0,21,9.24,4.78,2019-07-12 19:41:15
50,2409914,Bonthe,SL,-12.5,7.53,100,88,24.64,4.89,2019-07-12 19:41:16
51,3024532,Cluses,FR,6.58,46.06,75,53,24.24,2.1,2019-07-12 19:41:17
52,6201424,Mataura,NZ,168.86,-46.19,100,69,8.94,4.96,2019-07-12 19:37:36
53,3660401,San Vicente,EC,-80.41,-0.59,20,78,26.0,6.2,2019-07-12 19:41:21
54,7626384,Hovd,NO,10.7,63.83,0,76,12.6,7.7,2019-07-12 19:41:23
55,3833367,Ushuaia,AR,-68.31,-54.81,40,75,5.0,4.1,2019-07-12 19:41:24
56,1633419,Padang,ID,100.36,-0.92,44,81,27.24,3.11,2019-07-12 19:41:25
57,3471451,Arraial do Cabo,BR,-42.02,-22.97,0,69,24.51,4.1,2019-07-12 19:41:27
58,3469169,Cervo,BR,-46.24,-22.19,0,37,22.0,0.29,2019-07-12 19:41:28
59,1062553,Mahanoro,MG,48.8,-19.9,65,97,17.54,0.6,2019-07-12 19:41:30
60,2356228,Reo,BF,-2.47,12.32,65,49,30.24,0.94,2019-07-12 19:41:31
61,1283217,Khandbari,NP,87.21,27.38,100,95,13.04,1.02,2019-07-12 19:41:32
62,1865309,Katsuura,JP,134.5,33.93,75,83,21.83,1.0,2019-07-12 19:41:34
63,1106677,Bambous Virieux,MU,57.76,-20.34,40,64,20.58,4.1,2019-07-12 19:39:22
64,5975004,High Level,CA,-117.13,58.52,75,60,20.0,3.6,2019-07-12 19:41:36
65,140097,Borazjan,IR,51.21,29.27,0,36,35.0,0.91,2019-07-12 19:41:39
66,5882953,Aklavik,CA,-135.01,68.22,75,66,8.83,1.5,2019-07-12 19:41:41
67,1651810,Airai,TL,125.41,-8.93,68,80,19.14,2.15,2019-07-12 19:38:50
68,3443061,Chuy,UY,-53.46,-33.69,92,96,15.84,2.63,2019-07-12 19:41:43
69,3369157,Cape Town,ZA,18.42,-33.93,0,87,11.96,2.1,2019-07-12 19:37:11
70,3526662,Teya,MX,-89.07,21.05,75,52,34.87,3.1,2019-07-12 19:41:46
71,5848280,Kapaa,US,-159.32,22.08,20,74,27.48,5.1,2019-07-12 19:37:35
72,296852,Erzin,TR,36.2,36.95,40,69,25.04,7.7,2019-07-12 19:41:49
73,1499158,Mayna,RU,91.49,53.0,100,99,13.34,0.94,2019-07-12 19:41:50
74,262462,Saint George,GR,22.34,39.45,75,73,23.14,5.1,2019-07-12 19:41:51
75,1519030,Shu,KZ,73.76,43.6,3,22,24.04,3.04,2019-07-12 19:41:53
76,5919850,Chapais,CA,-74.86,49.78,90,93,15.0,4.6,2019-07-12 19:41:54
77,3037456,Saint-Joseph,FR,6.97,43.56,0,74,25.33,2.1,2019-07-12 19:41:55
78,2014624,Udachnyy,RU,112.4,66.42,90,93,9.0,2.0,2019-07-12 19:41:57
79,2180815,Tuatapere,NZ,167.69,-46.13,100,78,11.14,8.5,2019-07-12 19:41:58
80,3186588,Zeljezno Polje,BA,17.93,44.41,0,87,15.44,1.0,2019-07-12 19:42:00
81,126972,Sarab,IR,44.99,38.61,0,42,13.54,2.0,2019-07-12 19:42:01
82,3833859,Barrow,AR,-60.23,-38.31,0,74,8.74,3.43,2019-07-12 19:42:02
83,3872255,San Felipe,CL,-70.73,-32.75,6,88,15.0,0.45,2019-07-12 19:41:09
84,5880568,Bethel,US,-161.76,60.79,90,82,16.77,4.6,2019-07-12 19:37:12
85,2636432,Baglan,GB,-3.81,51.62,63,72,18.04,4.6,2019-07-12 19:42:07
86,5563839,Fortuna,US,-124.16,40.6,75,72,21.49,4.6,2019-07-12 19:38:26
87,1214488,Meulaboh,ID,96.13,4.14,100,72,28.34,3.94,2019-07-12 19:42:09
88,5855927,Hilo,US,-155.08,19.71,1,58,25.57,1.5,2019-07-12 19:42:11
89,2192362,Christchurch,NZ,172.64,-43.53,0,81,5.24,2.1,2019-07-12 19:38:01
90,3393692,Itarema,BR,-39.92,-2.92,20,72,25.64,4.56,2019-07-12 19:42:13
91,3402648,Carutapera,BR,-46.02,-1.2,12,90,24.64,2.81,2019-07-12 19:42:15
92,2012938,Yerofey Pavlovich,RU,121.97,53.97,39,74,16.44,1.61,2019-07-12 19:42:16
93,4975802,Portland,US,-70.25,43.66,75,83,23.84,3.1,2019-07-12 19:42:19
94,100926,Umm Lajj,SA,37.27,25.02,5,68,29.94,1.99,2019-07-12 19:42:21
95,3831208,Qaanaaq,GL,-69.36,77.48,100,58,7.94,2.23,2019-07-12 19:37:37
96,4176380,Venice,US,-82.45,27.1,1,66,30.61,4.6,2019-07-12 19:40:31
97,1734052,Sandakan,MY,118.12,5.84,75,100,23.0,3.1,2019-07-12 19:42:27
98,4360592,Lexington Park,US,-76.45,38.26,75,58,31.42,3.1,2019-07-12 19:42:28
99,474354,Verkhovazhye,RU,42.05,60.75,0,92,6.34,1.84,2019-07-12 19:42:31
100,3421319,Nuuk,GL,-51.74,64.17,75,81,8.0,4.6,2019-07-12 19:42:32
101,2729907,Longyearbyen,NO,15.63,78.22,75,70,7.0,7.2,2019-07-12 19:42:33
102,2136150,Luganville,VU,167.18,-15.51,100,96,22.24,2.17,2019-07-12 19:42:35
103,581049,Arkhangelsk,RU,40.54,64.54,40,87,9.0,2.0,2019-07-12 19:42:36
104,2208248,Kaitangata,NZ,169.85,-46.28,78,75,5.56,0.45,2019-07-12 19:42:38
105,4372777,Vardo,US,-77.74,39.62,1,45,30.2,6.7,2019-07-12 19:42:39
106,492351,Skorodnoye,RU,37.24,51.07,75,82,15.0,3.0,2019-07-12 19:42:40
107,4021858,Guerrero Negro,MX,-114.04,27.97,0,87,19.14,8.48,2019-07-12 19:42:43
108,3418910,Upernavik,GL,-56.15,72.79,4,72,8.14,0.13,2019-07-12 19:42:45
109,2075265,Busselton,AU,115.35,-33.64,100,81,7.54,7.37,2019-07-12 19:42:46
110,117656,Ayan,IR,44.7,38.23,0,42,13.54,2.0,2019-07-12 19:42:50
111,876177,Luau,CD,22.23,-10.7,27,30,18.04,2.57,2019-07-12 19:42:51
112,1504382,Kargasok,RU,80.87,59.06,0,76,16.94,2.29,2019-07-12 19:42:53
113,2508813,Adrar,DZ,-0.29,27.87,0,6,44.0,5.7,2019-07-12 19:42:54
114,2255564,Ouesso,CG,16.05,1.61,28,89,21.84,0.66,2019-07-12 19:42:56
115,5423294,Golden,US,-105.22,39.76,1,18,32.22,2.6,2019-07-12 19:42:57
116,6167817,Torbay,CA,-52.73,47.66,75,63,15.43,4.1,2019-07-12 19:42:58
117,514052,Ostrovskoye,RU,42.24,57.81,0,91,6.54,0.75,2019-07-12 19:43:00
118,1688687,San Quintin,PH,120.52,17.54,0,89,23.64,1.71,2019-07-12 19:43:02
119,1632694,Pangkalanbuun,ID,111.62,-2.68,51,98,21.94,0.78,2019-07-12 19:43:05
120,3397893,Itacoatiara,BR,-58.44,-3.14,20,74,30.0,2.1,2019-07-12 19:43:06
121,588365,Vao,EE,26.19,59.1,45,77,10.34,3.26,2019-07-12 19:38:39
122,547523,Klin,RU,36.74,56.34,0,93,12.0,2.0,2019-07-12 19:43:09
123,3420768,Qasigiannguit,GL,-51.19,68.82,75,87,7.0,2.1,2019-07-12 19:43:11
124,3105522,Bereda,ES,-7.54,43.27,90,76,19.68,4.47,2019-07-12 19:43:12
125,3451241,Rio Brilhante,BR,-54.54,-21.8,0,47,22.84,2.08,2019-07-12 19:43:13
126,364933,Umm Kaddadah,SD,26.69,13.6,52,45,28.34,4.16,2019-07-12 19:43:15
127,5197517,Lebanon,US,-76.42,40.34,75,48,29.42,5.7,2019-07-12 19:43:16
128,6170031,Tuktoyaktuk,CA,-133.03,69.44,75,75,6.0,2.1,2019-07-12 19:43:18
129,2123814,Leningradskiy,RU,178.42,69.38,13,74,8.34,3.85,2019-07-12 19:43:19
130,1733782,Victoria,BN,115.24,5.28,90,100,23.95,1.99,2019-07-12 19:40:32
131,3026644,Souillac,FR,-0.6,45.6,0,69,23.76,5.7,2019-07-12 19:39:02
132,6165406,Thompson,CA,-97.86,55.74,40,33,24.0,5.7,2019-07-12 19:43:23
133,6096551,Pangnirtung,CA,-65.72,66.15,90,100,6.0,4.6,2019-07-12 19:43:25
134,546105,Nikolskoye,RU,30.79,59.7,40,87,10.8,3.0,2019-07-12 19:43:26
135,2289887,Divo,CI,-5.36,5.83,61,98,21.24,1.84,2019-07-12 19:43:29
136,2063036,Port Lincoln,AU,135.86,-34.72,55,64,12.24,12.36,2019-07-12 19:43:30
137,3047811,Nagybajom,HU,17.51,46.39,75,73,19.64,2.1,2019-07-12 19:43:31
138,2013465,Verkhoyansk,RU,133.39,67.55,100,43,23.24,0.22,2019-07-12 19:43:33
139,5931800,Cranbrook,CA,-115.76,49.51,75,44,23.84,3.6,2019-07-12 19:43:34
140,5961417,Husavik,CA,-96.99,50.56,99,50,22.81,1.34,2019-07-12 19:43:36
141,556268,Ostrovnoy,RU,39.51,68.05,20,86,3.04,0.69,2019-07-12 19:43:37
142,3424607,Tasiilaq,GL,-37.64,65.61,40,75,8.0,3.6,2019-07-12 19:43:38
143,2126123,Chokurdakh,RU,147.9,70.62,71,55,20.94,5.94,2019-07-12 19:43:40
144,321836,Batman,TR,41.13,37.88,0,44,27.12,1.0,2019-07-12 19:43:41
145,3442750,Dolores,UY,-58.22,-33.53,100,95,13.89,8.05,2019-07-12 19:43:42
146,3407755,Amarante do Maranhao,BR,-46.74,-5.57,89,60,27.74,1.15,2019-07-12 19:43:44
147,3066095,Sitborice,CZ,16.78,49.01,20,88,15.91,1.5,2019-07-12 19:43:45
148,162099,Buzmeyin,TM,58.21,38.05,0,21,34.0,5.1,2019-07-12 19:43:47
149,2022572,Khatanga,RU,102.47,71.98,100,64,10.94,3.85,2019-07-12 19:43:48
150,1014034,Carnarvon,ZA,22.13,-30.97,0,26,12.34,2.57,2019-07-12 19:43:49
151,2084442,Vanimo,PG,141.3,-2.67,100,86,25.54,4.86,2019-07-12 19:43:51
152,2126785,Belaya Gora,RU,146.19,68.54,100,53,22.84,5.09,2019-07-12 19:43:52
153,5975034,High Prairie,CA,-116.48,55.43,0,58,23.04,5.42,2019-07-12 19:43:54
154,3665098,Barcelos,BR,-62.93,-0.97,74,83,27.34,0.87,2019-07-12 19:38:58
155,2025256,Chumikan,RU,135.31,54.72,99,94,11.94,1.18,2019-07-12 19:43:56
156,2194098,Ahipara,NZ,173.16,-35.17,0,81,15.54,5.06,2019-07-12 19:43:58
157,1242110,Kalmunai,LK,81.82,7.42,51,90,24.74,1.59,2019-07-12 19:44:00
158,2156643,Mount Gambier,AU,140.78,-37.83,75,81,8.0,7.7,2019-07-12 19:44:02
159,535839,Leshukonskoye,RU,45.76,64.9,29,89,6.34,0.61,2019-07-12 19:43:07
160,6355222,Yulara,AU,130.99,-25.24,0,52,7.0,3.6,2019-07-12 19:44:04
161,1850144,Nishihara,JP,139.53,35.74,1,93,20.96,1.5,2019-07-12 19:39:24
162,5855051,Ewa Beach,US,-158.01,21.32,20,54,27.77,6.7,2019-07-12 19:44:07
163,1490256,Talnakh,RU,88.39,69.49,40,87,14.0,5.0,2019-07-12 19:44:09
164,1213855,Sibolga,ID,98.78,1.74,7,79,27.44,3.55,2019-07-12 19:44:10
165,2014833,Tura,RU,100.22,64.27,97,81,15.74,2.98,2019-07-12 19:41:56
166,3115824,Muros,ES,-9.06,42.77,0,64,23.29,2.6,2019-07-12 19:44:16
167,4501427,Port Elizabeth,US,-74.98,39.31,20,55,30.85,6.7,2019-07-12 19:44:17
168,2028164,Deputatskiy,RU,139.9,69.3,90,72,17.44,4.77,2019-07-12 19:44:19
169,3893629,Coquimbo,CL,-71.34,-29.95,0,71,15.54,6.2,2019-07-12 19:43:13
170,2644037,Llangefni,GB,-4.31,53.26,67,82,15.81,5.1,2019-07-12 19:44:21
171,4034551,Faanui,PF,-151.75,-16.48,61,70,25.04,0.76,2019-07-12 19:44:23
172,1791464,Wenling,CN,121.38,28.38,100,89,26.58,1.73,2019-07-12 19:44:24
173,2991153,Muret,FR,1.33,43.46,20,37,25.96,6.2,2019-07-12 19:44:25
174,3421982,Maniitsoq,GL,-52.9,65.42,100,89,6.04,4.35,2019-07-12 19:44:27
175,3489440,Morant Bay,JM,-76.41,17.88,20,55,31.0,12.9,2019-07-12 19:44:30
176,3359638,Walvis Bay,NA,14.51,-22.95,0,68,15.69,4.6,2019-07-12 19:44:31
177,1862555,Hirado,JP,129.49,33.32,100,94,22.23,2.1,2019-07-12 19:44:32
178,3141667,Roald,NO,6.12,62.58,20,81,13.02,5.7,2019-07-12 19:44:35
179,2618795,Klaksvik,FO,-6.59,62.23,100,87,11.0,2.6,2019-07-12 19:44:36
180,244878,Biltine,TD,20.93,14.53,100,71,25.64,8.54,2019-07-12 19:44:38
181,145952,Ypsonas,CY,32.96,34.69,0,78,24.6,9.3,2019-07-12 19:44:39
182,1529484,Hami,CN,93.51,42.84,0,37,22.74,1.55,2019-07-12 19:44:41
183,2396253,Tchibanga,GA,11.0,-2.92,58,93,21.14,1.61,2019-07-12 19:44:43
184,2440371,Ouallam,NE,2.08,14.32,88,47,31.04,4.99,2019-07-12 19:44:45
185,3652764,Puerto Ayora,EC,-90.35,-0.74,40,57,24.88,7.7,2019-07-12 19:44:46
186,609919,Kuryk,KZ,51.68,43.18,10,70,26.54,8.46,2019-07-12 19:44:49
187,3863379,Mar del Plata,AR,-67.52,-46.43,82,61,6.04,2.09,2019-07-12 19:44:50
188,2012646,Zarubino,RU,131.06,42.65,73,97,14.94,1.69,2019-07-12 19:44:51
189,2450173,Taoudenni,ML,-3.98,22.68,0,6,38.74,5.31,2019-07-12 19:44:53
190,2012530,Zhigansk,RU,123.37,66.77,90,84,16.04,8.02,2019-07-12 19:44:54
191,5960603,Geraldton,CA,-86.95,49.72,75,68,22.0,4.6,2019-07-12 19:43:17
192,1253628,Lata,IN,78.62,30.78,98,98,7.24,1.69,2019-07-12 19:44:57
193,3465769,Conceicao da Barra,BR,-39.73,-18.59,67,81,20.54,2.05,2019-07-12 19:44:58
194,2126199,Cherskiy,RU,161.3,68.75,47,69,14.14,5.98,2019-07-12 19:45:00
195,3453439,Ponta do Sol,BR,-46.0,-20.63,0,52,17.14,0.39,2019-07-12 19:44:32
196,5983720,Iqaluit,CA,-68.52,63.75,40,62,13.94,1.5,2019-07-12 19:45:03
197,4033557,Tautira,PF,-149.15,-17.73,40,69,27.89,1.5,2019-07-12 19:45:04
198,2139521,Noumea,NC,166.46,-22.28,0,82,15.0,0.5,2019-07-12 19:45:05
199,6094665,Osoyoos,CA,-119.47,49.03,75,36,24.33,2.1,2019-07-12 19:45:07
200,2013279,Vostok,RU,135.83,46.45,65,81,15.44,1.65,2019-07-12 19:45:08
201,3676604,Rosarito,CO,-75.23,4.91,75,45,27.98,4.6,2019-07-12 19:45:10
202,1254709,Tezu,IN,96.16,27.93,100,98,21.94,1.47,2019-07-12 19:45:11
203,512255,Shirokiy,RU,39.17,53.87,51,92,11.34,2.31,2019-07-12 19:45:12
204,5924351,Clyde River,CA,-68.59,70.47,75,93,4.0,8.2,2019-07-12 19:45:14
205,3616232,Somoto,NI,-86.58,13.48,32,43,30.84,3.48,2019-07-12 19:45:15
206,2644605,Lerwick,GB,-1.15,60.15,100,81,12.0,3.6,2019-07-12 19:45:16
207,1282898,Pokhara,NP,83.99,28.21,96,93,12.74,1.02,2019-07-12 19:45:18
208,3466980,Caravelas,BR,-39.27,-17.73,87,71,22.84,2.97,2019-07-12 19:45:19
209,5046001,Sartell,US,-94.21,45.62,40,45,29.04,2.1,2019-07-12 19:45:21
210,6089245,Norman Wells,CA,-126.83,65.28,20,51,15.0,6.7,2019-07-12 19:45:22
211,933178,Pandamatenga,BW,25.64,-18.54,0,29,11.54,2.11,2019-07-12 19:45:23
212,2094144,Kerema,PG,145.78,-7.96,100,83,23.94,6.46,2019-07-12 19:45:25
213,3530691,Chunhuhub,MX,-88.59,19.59,93,27,36.64,3.89,2019-07-12 19:45:26
214,5464806,Deming,US,-107.76,32.27,1,21,32.08,5.0,2019-07-12 19:45:29
215,3939761,Hualmay,PE,-77.61,-11.1,15,86,17.04,6.6,2019-07-12 19:43:32
216,1806041,Jiaocheng,CN,116.14,24.68,100,98,22.84,1.57,2019-07-12 19:44:20
217,2445553,Dogondoutchi,NE,4.03,13.64,4,44,32.14,6.49,2019-07-12 19:45:34
218,1282256,Hithadhoo,MV,73.08,-0.6,17,76,28.84,4.92,2019-07-12 19:43:08
219,740430,Safranbolu,TR,32.69,41.25,0,86,12.84,1.42,2019-07-12 19:44:35
220,5866063,Kenai,US,-151.26,60.55,90,93,13.73,5.1,2019-07-12 19:45:39
221,2017155,Saskylakh,RU,114.09,71.97,33,63,10.04,2.23,2019-07-12 19:45:41
222,2518820,Don Benito,ES,-5.86,38.95,33,30,33.33,1.79,2019-07-12 19:42:10
223,3868158,Villarrica,CL,-72.23,-39.28,75,66,13.17,6.2,2019-07-12 19:45:45
224,2110227,Butaritari,KI,172.79,3.07,31,75,28.94,4.71,2019-07-12 19:43:09
225,1792592,Tongren,CN,109.18,27.72,98,93,19.14,0.55,2019-07-12 19:45:47
226,2313084,Mangai,CD,19.59,-4.07,67,58,25.14,1.64,2019-07-12 19:45:49
227,2159774,Lockhart,AU,146.72,-35.22,0,93,5.49,5.1,2019-07-12 19:45:50
228,2995603,Saint-Pierre,FR,4.24,48.95,0,53,21.7,6.2,2019-07-12 19:45:52
229,1314759,Lashio,MM,97.75,22.93,100,99,21.24,0.59,2019-07-12 19:45:54
230,1525988,Ayagoz,KZ,80.43,47.96,0,79,15.64,7.81,2019-07-12 19:45:56
231,2122104,Petropavlovsk-Kamchatskiy,RU,158.65,53.05,90,100,11.0,1.0,2019-07-12 19:45:57
232,2190224,Hastings,NZ,176.84,-39.64,0,84,9.84,2.73,2019-07-12 19:45:58
233,557754,Vikulovo,RU,40.96,55.07,0,94,10.14,2.28,2019-07-12 19:46:00
234,4031637,Lavrentiya,RU,-170.99,65.58,100,38,20.34,0.9,2019-07-12 19:46:01
235,2127515,Wakkanai,JP,141.67,45.41,100,90,14.74,10.55,2019-07-12 19:46:04
236,60019,Eyl,SO,49.82,7.98,35,65,25.14,9.98,2019-07-12 19:46:05
237,3939168,Huarmey,PE,-78.15,-10.07,16,87,17.44,6.99,2019-07-12 19:46:07
238,1563281,Tuy Hoa,VN,109.3,13.08,0,80,23.64,1.81,2019-07-12 19:46:08
239,4470244,Havelock,US,-76.9,34.88,40,66,30.61,5.7,2019-07-12 19:45:16
240,3924679,Vilhena,BR,-60.15,-12.74,0,37,30.0,4.1,2019-07-12 19:46:11
241,468983,Yarensk,RU,49.09,62.17,19,97,7.34,0.4,2019-07-12 19:46:12
242,1684245,Tagusao,PH,117.81,9.19,100,81,26.34,1.78,2019-07-12 19:46:14
243,2756071,Epe,DE,7.04,52.18,78,82,16.92,1.5,2019-07-12 19:46:15
244,2112802,Hasaki,JP,140.83,35.73,75,93,18.51,0.5,2019-07-12 19:46:16
245,2071860,Esperance,AU,121.89,-33.86,90,93,9.0,2.49,2019-07-12 19:43:05
246,5233053,Yankton,US,-97.4,42.87,1,62,30.93,5.7,2019-07-12 19:46:20
247,933777,Gabane,BW,25.78,-24.67,0,28,13.0,2.6,2019-07-12 19:46:22
248,2388036,Bossangoa,CF,17.45,6.5,84,94,20.34,0.49,2019-07-12 19:46:23
249,4845585,Westport,US,-73.36,41.14,90,62,29.89,4.6,2019-07-12 19:46:25
250,64814,Bandarbeyla,SO,50.81,9.49,3,65,25.64,10.53,2019-07-12 19:46:26
251,2236967,Soyo,AO,12.37,-6.13,3,84,22.74,3.98,2019-07-12 19:46:27
252,934479,Grand Gaube,MU,57.66,-20.01,40,64,20.83,4.1,2019-07-12 19:46:29
253,1488414,Urengoy,RU,78.37,65.96,4,79,13.54,3.71,2019-07-12 19:46:30
254,2253354,Dakar,SN,-17.45,14.69,40,69,27.46,4.1,2019-07-12 19:44:18
255,2022773,Khandyga,RU,135.58,62.65,34,51,21.84,0.34,2019-07-12 19:43:15
256,3896218,Castro,CL,-73.76,-42.48,90,87,9.0,7.7,2019-07-12 19:46:34
257,2961459,Skibbereen,IE,-9.27,51.55,40,72,16.0,8.7,2019-07-12 19:46:35
258,1337605,Mahibadhoo,MV,72.97,3.78,44,71,29.04,3.68,2019-07-12 19:46:37
259,6149374,Slave Lake,CA,-114.77,55.28,1,68,20.0,3.1,2019-07-12 19:46:38
260,1855476,Nichinan,JP,131.31,31.65,100,78,22.78,2.24,2019-07-12 19:46:40
261,3182210,Mier,IT,12.19,46.13,40,83,18.34,1.5,2019-07-12 19:46:41
262,3423146,Ilulissat,GL,-51.1,69.22,75,87,7.0,2.1,2019-07-12 19:44:00
263,5697939,North Platte,US,-100.77,41.12,1,55,31.45,2.6,2019-07-12 19:46:44
264,2015306,Tiksi,RU,128.87,71.64,33,60,10.04,5.5,2019-07-12 19:46:45
265,2121385,Severo-Kurilsk,RU,156.12,50.68,100,94,7.04,3.81,2019-07-12 19:46:46
266,2122090,Pevek,RU,170.27,69.7,52,85,5.44,3.87,2019-07-12 19:46:48
267,6160603,Swift Current,CA,-107.8,50.29,20,68,21.0,4.6,2019-07-12 19:46:49
268,1787046,Honggang,CN,114.87,29.51,100,99,20.74,0.97,2019-07-12 19:46:51
269,2094027,Kieta,PG,155.63,-6.22,50,75,27.14,3.25,2019-07-12 19:43:17
270,3416888,Grindavik,IS,-22.43,63.84,75,87,13.58,1.5,2019-07-12 19:46:53
271,3693345,Pucallpa,PE,-74.54,-8.38,75,331,2.0,2.1,2019-07-12 19:43:02
272,2638911,Ryde,GB,-1.16,50.73,0,49,21.46,6.2,2019-07-12 19:46:56
273,2630299,Hofn,IS,-15.21,64.25,90,93,12.0,2.6,2019-07-12 19:46:58
274,2136825,Isangel,VU,169.27,-19.55,0,77,23.14,8.41,2019-07-12 19:46:59
275,695826,Rakiv Lis,UA,24.92,51.62,54,84,13.04,1.06,2019-07-12 19:47:00
276,3833859,Tres Arroyos,AR,-60.28,-38.38,0,74,8.74,3.43,2019-07-12 19:47:02
277,5505411,Henderson,US,-114.98,36.04,1,11,39.89,4.6,2019-07-12 19:46:14
278,2090021,Namatanai,PG,152.44,-3.66,100,80,24.84,1.89,2019-07-12 19:47:05
279,110690,Faya,SA,42.45,18.39,20,53,23.52,2.6,2019-07-12 19:47:06
280,1275066,Burhar,IN,81.54,23.21,100,77,26.34,2.6,2019-07-12 19:47:07
281,5915327,Cap-aux-Meules,CA,-61.86,47.38,90,87,16.0,3.6,2019-07-12 19:47:09
282,3386213,Touros,BR,-35.46,-5.2,75,94,24.0,4.1,2019-07-12 19:43:54
283,2068110,Kununurra,AU,128.74,-15.77,40,27,23.0,3.6,2019-07-12 19:47:12
284,1848373,Fukue,JP,136.69,35.03,75,78,23.8,4.1,2019-07-12 19:47:13
285,5948844,Englehart,CA,-79.87,47.82,1,41,25.0,3.6,2019-07-12 19:47:14
286,129933,Juybar,IR,52.91,36.64,0,79,28.0,1.0,2019-07-12 19:47:16
287,5969025,Haines Junction,CA,-137.51,60.75,99,48,17.44,4.69,2019-07-12 19:47:17
288,57000,Hobyo,SO,48.53,5.35,1,73,25.64,11.0,2019-07-12 19:47:19
289,2088122,Port Moresby,PG,147.16,-9.47,75,94,20.0,1.5,2019-07-12 19:47:20
290,3838793,Rio Tercero,AR,-64.11,-32.17,70,61,12.54,2.65,2019-07-12 19:47:21
291,863061,Usinsk,RU,57.56,66.0,2,62,11.24,4.49,2019-07-12 19:47:23
292,151211,Sola,TZ,33.8,-3.17,72,84,18.54,1.31,2019-07-12 19:47:24
293,2171722,Charters Towers,AU,146.27,-20.07,100,77,13.14,2.66,2019-07-12 19:47:26
294,3381538,Grand-Santi,GF,-54.38,4.27,19,68,28.54,1.15,2019-07-12 19:44:44
295,344979,Lebu,ET,38.73,8.96,100,88,14.34,0.91,2019-07-12 19:47:28
296,5062458,West Fargo,US,-96.9,46.88,1,61,27.13,4.1,2019-07-12 19:47:30
297,4267710,Sitka,US,-99.65,37.17,0,49,32.78,1.34,2019-07-12 19:47:32
298,4407665,Kodiak,US,-94.76,39.95,1,69,30.64,3.1,2019-07-12 19:44:04
299,3421765,Nanortalik,GL,-45.24,60.14,100,89,4.94,1.4,2019-07-12 19:47:35
300,1640972,Katobu,ID,122.53,-4.94,72,89,21.14,1.77,2019-07-12 19:47:36
301,2016307,Solnechnyy,RU,136.64,50.72,94,97,15.34,1.75,2019-07-12 19:47:38
302,3577154,Oranjestad,AW,-70.03,12.52,20,62,31.0,9.8,2019-07-12 19:47:22
303,1150154,Thoen,TH,99.22,17.61,100,96,21.54,1.16,2019-07-12 19:47:42
304,5767918,Pierre,US,-100.35,44.37,1,43,31.22,1.5,2019-07-12 19:47:43
305,1252783,Yarada,IN,83.27,17.65,100,75,28.84,6.15,2019-07-12 19:47:44
306,3031871,Veraval,FR,0.71,49.65,20,56,18.96,4.1,2019-07-12 19:47:46
307,2122493,Omsukchan,RU,155.8,62.53,80,35,22.74,2.12,2019-07-12 19:44:56
308,72181,Marzuq,YE,46.47,14.4,64,36,26.24,2.51,2019-07-12 19:47:49
309,4033375,Tevaitoa,PF,-151.5,-16.78,6,72,24.94,1.39,2019-07-12 19:47:51
310,1277530,Baloda Bazar,IN,82.17,21.65,100,75,27.94,5.65,2019-07-12 19:47:54
311,1528998,Yumen,CN,97.04,40.29,100,61,18.84,9.03,2019-07-12 19:47:55
312,1649593,Baturaja,ID,104.17,-4.12,91,98,21.54,1.22,2019-07-12 19:47:57
313,6320062,Vila Velha,BR,-38.6,-3.71,0,66,28.53,7.2,2019-07-12 19:44:35
314,3836669,San Rafael,AR,-68.33,-34.61,0,46,11.14,2.53,2019-07-12 19:47:59
315,744537,Karacabey,TR,28.36,40.21,0,68,20.6,1.5,2019-07-12 19:48:01
316,2966778,Ballina,IE,-9.15,54.11,75,76,14.36,4.6,2019-07-12 19:43:40
317,2138285,Tadine,NC,167.88,-21.55,44,78,22.24,7.92,2019-07-12 19:48:03
318,1628884,Sampit,ID,112.95,-2.54,45,99,22.24,0.49,2019-07-12 19:48:05
319,2063042,Port Hedland,AU,118.58,-20.31,0,22,15.0,5.1,2019-07-12 19:48:06
320,1259385,Port Blair,IN,92.75,11.67,100,77,28.64,7.09,2019-07-12 19:44:32
321,3126369,Carballo,ES,-8.69,43.21,0,64,22.34,3.1,2019-07-12 19:48:09
322,1268434,Kalghatgi,IN,74.97,15.18,97,97,22.34,1.33,2019-07-12 19:48:10
323,359783,Asyut,EG,31.19,27.18,0,33,32.0,5.1,2019-07-12 19:48:12
324,1039536,Maxixe,MZ,35.35,-23.86,0,93,19.0,1.35,2019-07-12 19:48:13
325,117392,Mitu,IR,46.09,36.2,0,29,18.64,2.58,2019-07-12 19:48:14
326,1487615,Vengerovo,RU,76.74,55.68,0,90,15.44,2.62,2019-07-12 19:48:16
327,698627,Oleksandrivka,UA,32.24,48.97,20,87,13.34,2.74,2019-07-12 19:48:17
328,1337613,Kulhudhuffushi,MV,73.07,6.62,100,73,28.64,3.24,2019-07-12 19:48:19
329,3603330,Amapa,HN,-87.97,15.09,20,39,35.0,1.5,2019-07-12 19:48:20
330,1263942,Manavalakurichi,IN,77.3,8.13,40,83,27.0,1.5,2019-07-12 19:48:24
331,916095,Kabwe,ZM,28.44,-14.44,0,54,11.04,2.81,2019-07-12 19:48:25
332,1506268,Gornopravdinsk,RU,69.92,60.06,100,76,16.84,0.68,2019-07-12 19:48:27
333,4578737,Florence,US,-79.77,34.2,75,59,31.05,4.1,2019-07-12 19:47:04
334,1492499,Shagonar,RU,92.92,51.54,100,85,13.74,1.8,2019-07-12 19:48:29
335,1282884,Birpur,IN,86.75,26.48,100,93,25.24,3.55,2019-07-12 19:48:31
336,6148373,Sioux Lookout,CA,-91.92,50.1,75,68,20.0,5.1,2019-07-12 19:48:32
337,493795,Shonguy,RU,33.15,68.75,75,93,6.0,2.0,2019-07-12 19:48:34
338,1280037,Shache,CN,77.24,38.42,0,61,30.56,2.82,2019-07-12 19:48:35
339,1648186,Bontang,ID,117.47,0.12,100,98,22.54,1.61,2019-07-12 19:48:36
340,2146108,Traralgon,AU,146.54,-38.19,90,80,4.93,4.47,2019-07-12 19:48:38
341,330534,Mizan Teferi,ET,35.58,6.99,100,99,16.64,0.85,2019-07-12 19:48:39
342,5742974,North Bend,US,-124.22,43.41,75,82,17.85,5.1,2019-07-12 19:48:41
343,141665,Bandar-e Lengeh,IR,54.88,26.56,19,69,32.04,1.91,2019-07-12 19:48:42
344,3466165,Cidreira,BR,-50.22,-30.17,66,77,19.24,2.51,2019-07-12 19:48:43
345,2294915,Takoradi,GH,-1.75,4.89,50,95,22.14,2.02,2019-07-12 19:48:45
346,3374210,Sao Filipe,CV,-24.5,14.9,1,84,23.04,7.78,2019-07-12 19:48:46
347,2184707,Wanaka,NZ,169.14,-44.7,46,95,2.14,2.6,2019-07-12 19:48:47
348,3016194,Chateauroux,FR,0.65,43.72,0,51,25.52,3.1,2019-07-12 19:48:49
349,5807713,Quincy,US,-119.85,47.23,1,31,25.45,1.5,2019-07-12 19:48:50
350,3451138,Rio Grande,BR,-52.1,-32.03,90,93,16.0,1.84,2019-07-12 19:48:54
351,4677526,Burkburnett,US,-98.57,34.1,1,40,32.74,2.6,2019-07-12 19:48:56
352,2381334,Atar,MR,-13.05,20.52,76,16,38.04,4.19,2019-07-12 19:48:57
353,2181133,Pareora,NZ,171.21,-44.49,47,76,5.56,2.52,2019-07-12 19:48:58
354,482042,Toropets,RU,31.64,56.5,52,80,6.74,0.37,2019-07-12 19:49:00
355,2417988,Macenta,GN,-9.47,8.55,100,98,20.24,1.1,2019-07-12 19:49:01
356,2562619,Saint Lawrence,MT,14.2,36.06,20,78,24.82,4.6,2019-07-12 19:49:03
357,6111862,Port Hardy,CA,-127.42,50.7,75,87,16.0,1.88,2019-07-12 19:49:04
358,2016910,Severobaykalsk,RU,109.32,55.65,100,93,10.64,3.23,2019-07-12 19:49:07
359,4036284,Alofi,NU,-169.92,-19.06,75,94,23.0,1.0,2019-07-12 19:49:08
360,4732862,Nome,US,-94.42,30.04,75,49,34.26,3.1,2019-07-12 19:49:10
361,4927537,Valparaiso,US,-87.06,41.47,1,45,27.96,2.6,2019-07-12 19:48:50
362,415189,Aden,YE,45.03,12.79,100,57,31.74,4.22,2019-07-12 19:49:12
363,2064735,Nhulunbuy,AU,136.78,-12.18,40,94,21.0,2.6,2019-07-12 19:49:14
364,1504636,Karabash,RU,60.21,55.49,100,97,17.34,1.99,2019-07-12 19:49:15
365,2303611,Axim,GH,-2.24,4.87,90,91,23.64,4.91,2019-07-12 19:49:16
366,2122614,Ekhabi,RU,142.97,53.51,100,93,10.04,3.63,2019-07-12 19:49:18
367,1714733,Dingle,PH,122.67,11.0,100,85,23.34,1.1,2019-07-12 19:49:19
368,317106,Denizli,TR,29.09,37.77,0,43,22.15,7.7,2019-07-12 19:49:21
369,2067070,Palmer,AU,139.16,-34.85,75,62,9.22,8.2,2019-07-12 19:49:22
370,3372472,Vila Franca do Campo,PT,-25.43,37.72,40,73,23.0,4.6,2019-07-12 19:49:23
371,499987,Rybnaya Sloboda,RU,50.14,55.46,75,93,17.0,5.0,2019-07-12 19:49:25
372,1254102,Tulsipur,IN,82.41,27.53,100,96,25.54,3.59,2019-07-12 19:49:26
373,521773,Nikolsk,RU,45.45,59.53,61,85,9.34,0.55,2019-07-12 19:49:28
374,406662,Daan,YE,43.43,17.0,52,40,34.14,1.63,2019-07-12 19:49:31
375,1655140,Pakxan,LA,103.66,18.39,100,94,22.74,0.51,2019-07-12 19:49:33
376,866241,Myskhako,RU,37.76,44.66,40,88,17.0,2.0,2019-07-12 19:49:34
377,252601,Tripoli,GR,22.37,37.51,0,60,22.12,4.1,2019-07-12 19:49:36
378,2986626,Plouzane,FR,-4.62,48.38,0,77,17.66,5.1,2019-07-12 19:49:37
379,1622318,Waingapu,ID,120.26,-9.65,0,87,18.74,4.74,2019-07-12 19:49:38
380,5859699,College,US,-147.8,64.86,90,87,15.81,1.66,2019-07-12 19:44:59
381,477940,Ust-Tsilma,RU,52.15,65.44,100,93,9.94,2.61,2019-07-12 19:49:41
382,2158744,Margate,AU,147.26,-43.03,40,75,5.0,4.1,2019-07-12 19:49:43
383,3697838,Contamana,PE,-75.01,-7.35,87,44,32.14,0.64,2019-07-12 19:49:45
384,1267390,Kavaratti,IN,72.64,10.57,30,79,28.24,4.69,2019-07-12 19:49:47
385,1835848,Seoul,KR,126.98,37.57,75,94,21.9,0.5,2019-07-12 19:45:30
386,5983607,Inuvik,CA,-133.71,68.36,90,65,9.13,1.5,2019-07-12 19:49:51
387,2522857,Tricase,IT,18.36,39.93,75,94,21.32,2.1,2019-07-12 19:46:20
388,5111405,Canandaigua,US,-77.28,42.88,90,68,22.56,5.14,2019-07-12 19:49:55
389,3573374,The Valley,AI,-63.06,18.22,75,62,30.43,6.7,2019-07-12 19:49:56
390,3355672,Luderitz,NA,15.16,-26.65,0,76,14.0,2.1,2019-07-12 19:49:57
391,3028513,Carros,FR,7.19,43.78,0,74,21.65,1.0,2019-07-12 19:49:59
392,3121424,Gijon,ES,-5.66,43.54,20,77,21.28,5.1,2019-07-12 19:50:00
393,1640660,Gondanglegi,ID,112.01,-7.75,14,94,19.34,3.56,2019-07-12 19:50:03
394,3936456,Lima,PE,-77.04,-12.06,90,77,18.0,3.6,2019-07-12 19:50:04
395,2514651,Los Llanos de Aridane,ES,-17.92,28.66,20,73,21.06,3.6,2019-07-12 19:50:06
396,2439155,Tanout,NE,8.88,14.97,0,38,32.84,4.25,2019-07-12 19:50:08
397,263166,Deskati,GR,21.81,39.93,100,93,17.91,1.5,2019-07-12 19:50:10
398,1185148,Patiya,BD,91.98,22.3,100,82,28.94,8.8,2019-07-12 19:50:11
399,2036892,Hohhot,CN,111.65,40.81,0,77,17.0,1.0,2019-07-12 19:50:14
400,686895,Zolochiv,UA,35.98,50.28,0,63,16.43,1.0,2019-07-12 19:50:15
401,146639,Emba,CY,32.42,34.81,75,78,23.84,5.7,2019-07-12 19:50:16
402,1731529,Aliaga,PH,120.85,15.5,75,83,27.0,1.0,2019-07-12 19:50:18
403,4703384,Kingsville,US,-97.86,27.52,1,42,35.28,3.1,2019-07-12 19:50:19
404,4951788,Springfield,US,-72.59,42.1,40,48,28.76,6.7,2019-07-12 19:46:47
405,1862505,Hirara,JP,125.28,24.8,13,83,28.84,9.99,2019-07-12 19:50:22
406,5383559,Placerville,US,-120.8,38.73,5,35,31.61,3.54,2019-07-12 19:50:23
407,3988462,Romita,MX,-101.52,20.87,40,47,25.0,2.1,2019-07-12 19:50:25
408,5495292,Truth or Consequences,US,-107.25,33.13,1,22,32.78,2.1,2019-07-12 19:50:26
409,3412093,Vestmannaeyjar,IS,-20.27,63.44,100,94,11.64,1.85,2019-07-12 19:50:28
410,933164,Pilane,BW,26.09,-24.41,0,28,13.0,2.6,2019-07-12 19:50:29
411,1623197,Tual,ID,132.75,-5.67,100,79,25.04,10.12,2019-07-12 19:50:30
412,3471830,Araguari,BR,-48.19,-18.65,0,26,28.0,2.6,2019-07-12 19:50:32
413,3382160,Cayenne,GF,-52.33,4.94,40,66,30.0,5.7,2019-07-12 19:50:33
414,2094342,Kavieng,PG,150.8,-2.57,100,74,28.14,5.51,2019-07-12 19:50:34
415,1293625,Dawei,MM,98.19,14.07,69,81,27.64,5.09,2019-07-12 19:50:36
416,1861416,Ishigaki,JP,124.16,24.34,30,82,28.94,11.03,2019-07-12 19:50:37
417,172515,Abu Samrah,SY,37.18,35.3,0,80,21.54,7.11,2019-07-12 19:50:39
418,2112444,Kamaishi,JP,141.86,39.28,100,99,16.64,1.2,2019-07-12 19:50:40
419,2124611,Kholodnyy,RU,147.95,62.72,67,63,17.24,1.91,2019-07-12 19:50:42
420,246008,Wadi Musa,JO,35.48,30.32,0,55,23.54,1.86,2019-07-12 19:50:43
421,5826027,Gillette,US,-105.5,44.29,1,42,29.14,7.2,2019-07-12 19:50:44
422,3576994,Cockburn Town,TC,-71.14,21.46,40,59,33.0,9.3,2019-07-12 19:47:04
423,2427336,Moussoro,TD,16.49,13.64,89,55,28.64,6.27,2019-07-12 19:50:47
424,1267065,Khanapur,IN,74.51,15.64,100,96,21.34,3.72,2019-07-12 19:50:48
425,778707,Mehamn,NO,27.85,71.03,75,81,7.54,3.6,2019-07-12 19:50:50
426,1715015,Dicabisagan,PH,122.42,17.08,19,96,22.94,0.44,2019-07-12 19:50:51
427,5849996,Lahaina,US,-156.68,20.87,40,65,26.21,7.7,2019-07-12 19:48:49
428,1267635,Karwar,IN,74.13,14.8,77,86,26.14,4.55,2019-07-12 19:50:54
429,2120591,Tilichiki,RU,166.1,60.47,68,81,12.24,2.84,2019-07-12 19:50:55
430,5530452,Seminole,US,-102.64,32.72,1,26,33.97,1.5,2019-07-12 19:50:42
431,6185217,Yarmouth,CA,-66.12,43.84,90,100,19.34,8.2,2019-07-12 19:50:58
432,2825297,Stuttgart,DE,9.18,48.78,75,93,15.56,3.1,2019-07-12 19:48:31
433,4004293,Ixtapa,MX,-105.21,20.71,75,55,31.32,6.2,2019-07-12 19:51:01
434,5932311,Creston,CA,-116.52,49.1,1,44,26.95,1.5,2019-07-12 19:51:02
435,2334008,Kontagora,NG,5.47,10.4,94,90,23.34,3.01,2019-07-12 19:51:05
436,2737599,Saldanha,PT,-6.55,41.42,100,28,29.54,1.3,2019-07-12 19:51:06
437,1794903,Shiyan,CN,110.78,32.65,20,96,15.24,2.18,2019-07-12 19:51:08
438,6050066,La Ronge,CA,-105.3,55.1,75,44,24.0,4.6,2019-07-12 19:51:09
439,6322184,Porto Novo,BR,-45.44,-23.68,0,41,24.0,1.0,2019-07-12 19:51:10
440,425378,Matara,BI,29.48,-3.48,17,85,10.04,0.32,2019-07-12 19:51:12
441,695653,Ripky,UA,31.09,51.8,3,95,11.54,1.66,2019-07-12 19:51:14
442,2884509,Krefeld,DE,6.56,51.33,100,87,17.31,5.1,2019-07-12 19:51:16
443,510911,Pervomayskiy,RU,40.29,53.24,43,81,13.54,2.22,2019-07-12 19:51:17
444,3428576,San Pedro,AR,-59.66,-33.68,5,65,17.28,3.13,2019-07-12 19:46:32
445,1259411,Ponnani,IN,75.93,10.77,40,78,27.0,1.5,2019-07-12 19:51:20
446,612691,Ninotsminda,GE,43.59,41.27,55,63,17.0,2.6,2019-07-12 19:51:21
447,7626370,Bud,NO,6.91,62.91,0,63,12.69,3.1,2019-07-12 19:51:23
448,567806,Chuchkovo,RU,41.45,54.27,0,94,11.64,2.67,2019-07-12 19:51:24
449,3662342,Sao Gabriel da Cachoeira,BR,-67.09,-0.13,20,66,31.0,1.5,2019-07-12 19:50:29
450,2122605,Okhotsk,RU,143.24,59.36,15,83,14.64,0.31,2019-07-12 19:51:27
451,2377457,Nouadhibou,MR,-17.03,20.93,0,69,23.0,9.3,2019-07-12 19:51:07
452,2088163,Popondetta,PG,148.24,-8.77,59,63,18.34,2.25,2019-07-12 19:51:29
453,3671519,Puerto Carreno,CO,-67.49,6.19,40,62,30.0,2.32,2019-07-12 19:51:06
454,3931276,Puno,PE,-70.03,-15.84,0,10,16.0,2.6,2019-07-12 19:51:32
455,2441447,Maine-Soroa,NE,12.02,13.21,82,38,31.94,1.63,2019-07-12 19:51:34
456,3838859,Rio Gallegos,AR,-69.22,-51.62,40,87,6.0,2.3,2019-07-12 19:51:35
457,1510689,Baykit,RU,96.39,61.68,100,88,12.34,0.51,2019-07-12 19:51:36
458,2032201,Bulgan,MN,103.53,48.81,100,83,14.74,0.23,2019-07-12 19:51:38
459,538049,Kuybyshevskiy Zaton,RU,49.17,55.16,75,93,17.0,5.0,2019-07-12 19:51:40
460,3870282,Talcahuano,CL,-73.12,-36.72,40,82,14.0,4.6,2019-07-12 19:51:42
461,359792,Aswan,EG,32.9,24.09,0,12,39.0,1.0,2019-07-12 19:51:43
462,3195214,Metlika,SI,15.32,45.65,75,82,19.48,3.1,2019-07-12 19:51:45
463,3382226,Camopi,GF,-52.33,3.17,5,94,24.84,1.35,2019-07-12 19:51:46
464,4334720,Natchitoches,US,-93.09,31.76,75,63,33.04,7.7,2019-07-12 19:48:01
465,1215502,Banda Aceh,ID,95.32,5.56,87,73,28.74,6.07,2019-07-12 19:51:49
466,2119283,Zyryanka,RU,150.89,65.73,50,62,22.74,1.89,2019-07-12 19:51:50
467,1505228,Izhmorskiy,RU,86.64,56.19,3,72,11.84,2.63,2019-07-12 19:51:51
468,3429577,Resistencia,AR,-58.99,-27.45,69,45,28.96,3.1,2019-07-12 19:51:54
469,128477,Kashan,IR,51.44,33.99,24,11,38.0,1.5,2019-07-12 19:51:55
470,1634718,Muncar,ID,114.34,-8.43,2,97,18.74,1.24,2019-07-12 19:51:57
471,6255012,Flinders,AU,150.85,-34.58,56,57,13.1,8.2,2019-07-12 19:51:58
472,3389822,Salinopolis,BR,-47.36,-0.61,3,77,27.64,7.07,2019-07-12 19:52:00
473,3440777,Rocha,UY,-54.34,-34.48,70,96,13.24,4.14,2019-07-12 19:52:01
474,1797353,Quanzhou,CN,118.59,24.9,0,83,28.0,3.0,2019-07-12 19:52:04
475,4231997,Avera,US,-82.53,33.19,40,55,32.98,2.82,2019-07-12 19:52:06
476,3855065,General Roca,AR,-67.58,-39.03,0,47,14.0,0.72,2019-07-12 19:52:08
477,6138501,Saint-Augustin,CA,-73.98,45.63,40,64,24.87,3.6,2019-07-12 19:52:09
478,1861280,Itoman,JP,127.67,26.12,40,88,27.92,5.7,2019-07-12 19:52:12
479,1260777,Palanpur,IN,72.44,24.17,100,63,29.64,6.67,2019-07-12 19:52:13
480,2132606,Samarai,PG,150.67,-10.62,100,95,22.54,2.83,2019-07-12 19:52:15
481,503977,Marfino,RU,37.56,56.07,0,93,12.26,2.0,2019-07-12 19:52:16
482,2209055,Waddan,LY,16.14,29.16,0,26,32.64,6.93,2019-07-12 19:52:19
483,257827,Mantamados,GR,26.33,39.31,0,44,22.78,1.0,2019-07-12 19:52:20
484,4153188,Destin,US,-86.5,30.39,20,66,30.75,7.2,2019-07-12 19:52:23
485,4907863,Rochelle,US,-89.07,41.92,1,45,29.22,3.1,2019-07-12 19:52:26
486,126972,Khoy,IR,44.95,38.55,0,42,13.54,2.0,2019-07-12 19:52:27
487,3395981,Maceio,BR,-35.74,-9.67,40,57,27.0,5.1,2019-07-12 19:49:56
488,3947322,Miraflores,PE,-71.52,-16.39,0,14,20.0,4.6,2019-07-12 19:52:31
489,3537840,Santa Cruz del Sur,CU,-78.0,20.71,98,53,32.74,6.28,2019-07-12 19:52:32
490,1486910,Komsomolskiy,RU,63.78,67.55,0,70,8.14,1.92,2019-07-12 19:52:34
491,3838233,Salta,AR,-65.41,-24.79,75,72,19.25,1.5,2019-07-12 19:52:35
492,1488774,Tyukhtet,RU,89.31,56.54,0,75,11.14,1.7,2019-07-12 19:52:37
493,787487,Poum,MK,20.71,41.28,40,82,16.0,1.5,2019-07-12 19:52:38
494,1497210,Novoagansk,RU,76.66,61.94,95,89,16.24,1.75,2019-07-12 19:52:39
495,3389673,Santa Cruz,BR,-36.02,-6.22,36,60,24.34,5.28,2019-07-12 19:52:41
496,2189343,Kaeo,NZ,173.78,-35.1,2,95,6.11,0.45,2019-07-12 19:52:42
497,1485634,Yuzhnouralsk,RU,61.27,54.44,9,84,18.64,3.54,2019-07-12 19:52:43
498,3604203,Urrutia,HN,-87.04,14.74,6,41,29.74,1.9,2019-07-12 19:52:45
499,3602137,San Jose,HN,-87.96,14.25,40,24,34.0,6.2,2019-07-12 19:48:28
500,3397154,Juazeiro,BR,-40.51,-9.43,40,45,29.0,6.2,2019-07-12 19:52:48
501,6145890,Shelburne,CA,-80.2,44.08,20,60,21.91,3.1,2019-07-12 19:52:49
502,4103957,Cabot,US,-92.02,34.97,75,46,31.7,4.6,2019-07-12 19:52:50
503,3354071,Oranjemund,ZA,16.43,-28.55,0,91,12.74,5.4,2019-07-12 19:52:52
504,1072879,Ankazoabo,MG,44.51,-22.29,0,48,14.84,1.79,2019-07-12 19:52:53
505,3609418,San Cristobal,HN,-86.92,14.68,33,44,28.64,5.09,2019-07-12 19:52:55
506,2082539,Merauke,ID,140.4,-8.49,100,79,24.24,9.18,2019-07-12 19:52:56
507,145531,Saurimo,AO,20.4,-9.66,24,30,19.14,2.99,2019-07-12 19:52:57
508,174611,Sinjar,SY,37.0,35.59,0,80,21.54,7.11,2019-07-12 19:52:59
509,1798760,Pingliang,CN,106.68,35.54,0,76,12.44,1.57,2019-07-12 19:53:00
510,3139914,Selje,NO,5.35,62.05,20,81,15.12,6.2,2019-07-12 19:53:02
511,3464073,Erechim,BR,-52.27,-27.64,0,50,25.0,6.2,2019-07-12 19:53:04
512,2374759,Bissora,GW,-15.45,12.22,75,74,29.0,4.1,2019-07-12 19:53:06
513,1791522,Lamu,CN,102.37,35.77,0,70,8.54,0.42,2019-07-12 19:53:07
514,2035601,Nenjiang,CN,125.23,49.17,100,93,18.14,1.2,2019-07-12 19:53:08
515,1637001,Biak,ID,122.88,-0.91,100,97,16.54,1.8,2019-07-12 19:53:10
516,1526038,Atbasar,KZ,68.36,51.81,0,55,19.64,4.36,2019-07-12 19:53:12
517,5391791,San Clemente,US,-117.61,33.43,1,48,27.95,3.6,2019-07-12 19:53:14
518,2986732,Ploemeur,FR,-3.43,47.73,0,56,20.95,5.1,2019-07-12 19:53:15
519,2460755,Bafoulabe,ML,-10.83,13.81,62,49,32.24,1.46,2019-07-12 19:53:17
520,3374120,Vila do Maio,CV,-23.22,15.13,20,61,27.0,6.7,2019-07-12 19:53:18
521,5877641,Wasilla,US,-149.44,61.58,90,82,15.76,1.87,2019-07-12 19:53:20
522,2249901,Gat,SN,-16.54,14.69,20,69,27.0,4.6,2019-07-12 19:53:21
523,1113217,Zabol,IR,61.49,31.03,0,19,35.0,8.2,2019-07-12 19:53:22
524,1695555,Pandan,PH,122.09,11.72,100,76,27.54,2.47,2019-07-12 19:53:24
525,3906478,Reyes,BO,-67.34,-14.3,20,58,31.0,5.1,2019-07-12 19:53:25
526,2145554,Ulladulla,AU,150.48,-35.36,0,57,9.01,8.2,2019-07-12 19:53:27
527,3902377,Trinidad,BO,-64.9,-14.83,20,52,32.0,4.1,2019-07-12 19:53:28
528,34915,Bani,YE,42.93,16.02,66,77,31.34,5.58,2019-07-12 19:53:29
529,5850554,Makakilo City,US,-158.09,21.35,1,65,27.92,3.1,2019-07-12 19:53:31
530,2098329,Daru,PG,143.21,-9.07,96,87,21.34,3.09,2019-07-12 19:53:32
531,1160571,Mirabad,IR,61.33,28.27,0,39,22.24,2.78,2019-07-12 19:53:33
532,3832899,Viedma,AR,-62.99,-40.81,0,62,8.74,1.83,2019-07-12 19:53:35
533,6955478,Les Escoumins,CA,-69.4,48.35,81,83,21.04,1.43,2019-07-12 19:53:36
534,5962442,Goderich,CA,-81.71,43.74,10,70,20.16,2.68,2019-07-12 19:53:01
535,4696310,Harper,US,-99.24,30.3,75,46,33.09,3.6,2019-07-12 19:53:39
536,215771,Isiro,CD,27.62,2.77,100,99,18.74,0.89,2019-07-12 19:53:40
537,2447416,Ayorou,NE,0.92,14.73,67,51,30.44,8.48,2019-07-12 19:53:42
538,1253888,Ullal,IN,74.85,12.8,75,88,24.0,1.5,2019-07-12 19:53:43
539,608270,Shubarshi,KZ,57.19,48.59,0,19,30.24,3.56,2019-07-12 19:53:44
540,2386756,Paka,CF,15.03,4.15,100,97,20.14,0.75,2019-07-12 19:53:46
541,1847947,Shingu,JP,135.99,33.72,100,83,19.04,1.17,2019-07-12 19:53:47
542,2212775,Sabha,LY,14.43,27.03,0,11,33.34,2.29,2019-07-12 19:53:49
543,545788,Kommunar,RU,30.39,59.62,40,87,10.65,3.0,2019-07-12 19:53:50
544,2065594,Mount Isa,AU,139.49,-20.73,81,58,13.0,5.1,2019-07-12 19:53:51
545,3347019,Namibe,AO,12.15,-15.19,95,83,18.34,3.39,2019-07-12 19:53:53
546,915471,Kalabo,ZM,22.67,-15.0,0,24,12.74,2.66,2019-07-12 19:53:54
547,1586350,Cam Ranh,VN,109.15,11.92,20,70,29.0,1.0,2019-07-12 19:53:56
548,3157686,Fetsund,NO,11.16,59.92,0,56,18.37,4.6,2019-07-12 19:53:57
549,3387928,Senador Jose Porfirio,BR,-51.95,-2.59,78,75,27.94,0.64,2019-07-12 19:53:58
550,1728675,Balabac,PH,117.06,7.99,100,83,25.44,0.43,2019-07-12 19:54:00
551,2039557,Khasan,RU,130.64,42.43,4,95,16.44,1.03,2019-07-12 19:54:01
552,2819564,Bellevue,DE,10.19,50.05,100,89,15.63,1.34,2019-07-12 19:54:02
553,3037899,Ambon,FR,-2.56,47.55,0,68,21.49,4.6,2019-07-12 19:54:04
554,3430443,Necochea,AR,-58.74,-38.55,0,89,11.11,2.68,2019-07-12 19:54:05
555,2645970,Jedburgh,GB,-2.55,55.48,91,72,15.94,6.2,2019-07-12 19:54:07
556,1254133,Tuensang,IN,94.81,26.24,100,98,21.94,0.96,2019-07-12 19:54:08
557,1259994,Payyannur,IN,75.2,12.1,40,100,25.0,1.5,2019-07-12 19:54:09
558,2413419,Gunjur,GM,-16.76,13.18,61,73,25.24,4.69,2019-07-12 19:54:11
559,2524076,Montalto Uffugo,IT,16.16,39.4,20,73,24.54,2.6,2019-07-12 19:54:12
560,1788268,Dongsheng,CN,112.52,29.72,96,97,21.04,1.45,2019-07-12 19:54:14
561,3994164,Opopeo,MX,-101.61,19.41,90,83,21.0,4.1,2019-07-12 19:54:15
562,2193968,Amberley,NZ,172.73,-43.15,0,80,5.58,2.1,2019-07-12 19:53:49
563,4033356,Tiarei,PF,-149.33,-17.53,40,69,27.88,2.1,2019-07-12 19:54:18
564,1786764,Yichang,CN,111.32,30.77,99,98,16.84,2.01,2019-07-12 19:54:19
565,3662574,Rio Branco,BR,-67.82,-9.98,40,55,31.0,3.1,2019-07-12 19:54:21
566,1641899,Labuhan,ID,115.51,-2.54,37,95,20.64,0.82,2019-07-12 19:54:22
567,2092164,Lorengau,PG,147.27,-2.02,100,76,25.44,2.65,2019-07-12 19:54:23
568,6078372,Moose Factory,CA,-80.61,51.26,75,77,18.0,3.1,2019-07-12 19:54:25
569,6539761,Rome,IT,12.48,41.89,0,78,23.37,3.6,2019-07-12 19:54:26
570,5367788,Lompoc,US,-120.46,34.64,2,42,22.41,4.1,2019-07-12 19:53:51
571,5574991,Boulder,US,-105.27,40.02,75,23,31.39,6.2,2019-07-12 19:54:29
572,2656067,Broome,GB,1.45,52.47,40,82,17.82,2.6,2019-07-12 19:54:30
573,1636426,Manggar,ID,108.27,-2.88,89,92,24.04,1.49,2019-07-12 19:54:32
574,2122614,Okha,RU,142.95,53.59,100,93,10.04,3.63,2019-07-12 19:54:33
575,152224,Kisesa,TZ,33.05,-2.55,20,83,22.0,5.1,2019-07-12 19:54:34
576,2172880,Byron Bay,AU,153.62,-28.65,100,93,13.35,0.5,2019-07-12 19:54:36
577,1642773,Japura,ID,102.29,-0.42,28,87,22.04,0.89,2019-07-12 19:54:37
578,5688789,Dickinson,US,-102.79,46.88,1,47,27.54,2.1,2019-07-12 19:49:40
579,1276788,Basar,IN,94.69,27.98,100,99,19.14,0.97,2019-07-12 19:54:40
580,3860443,Comodoro Rivadavia,AR,-67.48,-45.87,0,51,15.0,2.6,2019-07-12 19:54:41
581,5527953,Pampa,US,-100.96,35.54,1,43,33.83,3.6,2019-07-12 19:52:53
582,1159362,Torbat-e Jam,IR,60.63,35.24,0,19,25.04,3.25,2019-07-12 19:54:44
583,6693679,Gizo,IL,34.94,31.8,20,78,25.6,3.1,2019-07-12 19:54:45
584,2036069,Linjiang,CN,126.91,41.81,0,96,13.64,0.45,2019-07-12 19:54:47
585,3184575,Dukat,AL,19.57,40.25,95,78,21.67,0.89,2019-07-12 19:54:48
586,2034400,Tongliao,CN,122.27,43.61,38,84,19.54,2.43,2019-07-12 19:54:50
587,5563397,Eureka,US,-124.16,40.8,75,72,19.61,5.1,2019-07-12 19:53:12
588,4278471,Russell,US,-98.86,38.9,1,38,32.55,5.1,2019-07-12 19:54:52
589,1651103,Atambua,ID,124.89,-9.11,2,73,23.94,6.12,2019-07-12 19:54:54
590,1257771,Saiha,IN,92.98,22.49,100,98,22.94,1.88,2019-07-12 19:54:55
591,779622,Havoysund,NO,24.66,71.0,0,50,10.14,6.7,2019-07-12 19:54:56
592,1162105,Zhob,PK,69.45,31.34,0,39,25.04,2.89,2019-07-12 19:54:58
593,2374583,Bubaque,GW,-15.83,11.28,100,85,26.34,5.96,2019-07-12 19:54:59
594,6113828,Provost,CA,-110.26,52.35,34,47,24.04,4.3,2019-07-12 19:55:01
